<?xml version="1.0" encoding="UTF-8"?>
<kml xmlns="http://www.opengis.net/kml/2.2">
  <Document>
    <name>TWSE listed companies</name>
    <description/>
    <Style id="icon-1899-0288D1-normal">
      <IconStyle>
        <color>ffd18802</color>
        <scale>1</scale>
        <Icon>
          <href>https://www.gstatic.com/mapspro/images/stock/503-wht-blank_maps.png</href>
        </Icon>
        <hotSpot x="32" xunits="pixels" y="64" yunits="insetPixels"/>
      </IconStyle>
      <LabelStyle>
        <scale>0</scale>
      </LabelStyle>
    </Style>
    <Style id="icon-1899-0288D1-highlight">
      <IconStyle>
        <color>ffd18802</color>
        <scale>1</scale>
        <Icon>
          <href>https://www.gstatic.com/mapspro/images/stock/503-wht-blank_maps.png</href>
        </Icon>
        <hotSpot x="32" xunits="pixels" y="64" yunits="insetPixels"/>
      </IconStyle>
      <LabelStyle>
        <scale>1</scale>
      </LabelStyle>
    </Style>
    <StyleMap id="icon-1899-0288D1">
      <Pair>
        <key>normal</key>
        <styleUrl>#icon-1899-0288D1-normal</styleUrl>
      </Pair>
      <Pair>
        <key>highlight</key>
        <styleUrl>#icon-1899-0288D1-highlight</styleUrl>
      </Pair>
    </StyleMap>
    <Style id="icon-1899-0288D1-nodesc-normal">
      <IconStyle>
        <color>ffd18802</color>
        <scale>1</scale>
        <Icon>
          <href>https://www.gstatic.com/mapspro/images/stock/503-wht-blank_maps.png</href>
        </Icon>
        <hotSpot x="32" xunits="pixels" y="64" yunits="insetPixels"/>
      </IconStyle>
      <LabelStyle>
        <scale>0</scale>
      </LabelStyle>
      <BalloonStyle>
        <text><![CDATA[<h3>$[name]</h3>]]></text>
      </BalloonStyle>
    </Style>
    <Style id="icon-1899-0288D1-nodesc-highlight">
      <IconStyle>
        <color>ffd18802</color>
        <scale>1</scale>
        <Icon>
          <href>https://www.gstatic.com/mapspro/images/stock/503-wht-blank_maps.png</href>
        </Icon>
        <hotSpot x="32" xunits="pixels" y="64" yunits="insetPixels"/>
      </IconStyle>
      <LabelStyle>
        <scale>1</scale>
      </LabelStyle>
      <BalloonStyle>
        <text><![CDATA[<h3>$[name]</h3>]]></text>
      </BalloonStyle>
    </Style>
    <StyleMap id="icon-1899-0288D1-nodesc">
      <Pair>
        <key>normal</key>
        <styleUrl>#icon-1899-0288D1-nodesc-normal</styleUrl>
      </Pair>
      <Pair>
        <key>highlight</key>
        <styleUrl>#icon-1899-0288D1-nodesc-highlight</styleUrl>
      </Pair>
    </StyleMap>
    <Folder>
      <name>(未命名的圖層)</name>
      <Placemark>
        <name>3036文曄</name>
        <styleUrl>#icon-1899-0288D1-nodesc</styleUrl>
        <Point>
          <coordinates>
            121.4854958,24.9981631,0
          </coordinates>
        </Point>
      </Placemark>
      <Placemark>
        <name>1615大山</name>
        <styleUrl>#icon-1899-0288D1-nodesc</styleUrl>
        <Point>
          <coordinates>
            120.5278363,23.7179188,0
          </coordinates>
        </Point>
      </Placemark>
      <Placemark>
        <name>8046南電</name>
        <styleUrl>#icon-1899-0288D1-nodesc</styleUrl>
        <Point>
          <coordinates>
            121.2826428,25.0553741,0
          </coordinates>
        </Point>
      </Placemark>
      <Placemark>
        <name>3376新日興</name>
        <styleUrl>#icon-1899-0288D1-nodesc</styleUrl>
        <Point>
          <coordinates>
            121.4263043,25.0075733,0
          </coordinates>
        </Point>
      </Placemark>
      <Placemark>
        <name>6703軒郁</name>
        <styleUrl>#icon-1899-0288D1-nodesc</styleUrl>
        <Point>
          <coordinates>
            121.5444173,25.058795,0
          </coordinates>
        </Point>
      </Placemark>
      <Placemark>
        <name>1451年興</name>
        <styleUrl>#icon-1899-0288D1-nodesc</styleUrl>
        <Point>
          <coordinates>
            120.7990371,24.6262171,0
          </coordinates>
        </Point>
      </Placemark>
      <Placemark>
        <name>2467志聖</name>
        <styleUrl>#icon-1899-0288D1-nodesc</styleUrl>
        <Point>
          <coordinates>
            121.402855,25.0783,0
          </coordinates>
        </Point>
      </Placemark>
      <Placemark>
        <name>3287廣寰科</name>
        <styleUrl>#icon-1899-0288D1-nodesc</styleUrl>
        <Point>
          <coordinates>
            121.4867869,25.0039348,0
          </coordinates>
        </Point>
      </Placemark>
      <Placemark>
        <name>4903聯光通</name>
        <styleUrl>#icon-1899-0288D1-nodesc</styleUrl>
        <Point>
          <coordinates>
            120.9862974,24.7778211,0
          </coordinates>
        </Point>
      </Placemark>
      <Placemark>
        <name>8034榮群</name>
        <styleUrl>#icon-1899-0288D1-nodesc</styleUrl>
        <Point>
          <coordinates>
            121.007951,24.7720307,0
          </coordinates>
        </Point>
      </Placemark>
      <Placemark>
        <name>8011台通</name>
        <styleUrl>#icon-1899-0288D1-nodesc</styleUrl>
        <Point>
          <coordinates>
            121.4534863,25.0615129,0
          </coordinates>
        </Point>
      </Placemark>
      <Placemark>
        <name>8222寶一</name>
        <styleUrl>#icon-1899-0288D1-nodesc</styleUrl>
        <Point>
          <coordinates>
            120.28318,23.30631,0
          </coordinates>
        </Point>
      </Placemark>
      <Placemark>
        <name>1808潤隆</name>
        <styleUrl>#icon-1899-0288D1-nodesc</styleUrl>
        <Point>
          <coordinates>
            121.5337885,24.9583574,0
          </coordinates>
        </Point>
      </Placemark>
      <Placemark>
        <name>6215和椿
</name>
        <styleUrl>#icon-1899-0288D1-nodesc</styleUrl>
        <Point>
          <coordinates>
            121.5723392,25.0793383,0
          </coordinates>
        </Point>
      </Placemark>
      <Placemark>
        <name>8098慶康</name>
        <styleUrl>#icon-1899-0288D1-nodesc</styleUrl>
        <Point>
          <coordinates>
            120.2849672,23.1022115,0
          </coordinates>
        </Point>
      </Placemark>
      <Placemark>
        <name>7725列特博</name>
        <styleUrl>#icon-1899-0288D1-nodesc</styleUrl>
        <Point>
          <coordinates>
            121.5230625,25.0849956,0
          </coordinates>
        </Point>
      </Placemark>
      <Placemark>
        <name>7719碳基</name>
        <styleUrl>#icon-1899-0288D1-nodesc</styleUrl>
        <Point>
          <coordinates>
            120.5920609,24.1758159,0
          </coordinates>
        </Point>
      </Placemark>
      <Placemark>
        <name>3008大立光</name>
        <styleUrl>#icon-1899-0288D1-nodesc</styleUrl>
        <Point>
          <coordinates>
            120.6042492,24.1473235,0
          </coordinates>
        </Point>
      </Placemark>
      <Placemark>
        <name>4163鐿鈦</name>
        <styleUrl>#icon-1899-0288D1-nodesc</styleUrl>
        <Point>
          <coordinates>
            120.6034866,24.1465853,0
          </coordinates>
        </Point>
      </Placemark>
      <Placemark>
        <name>7713威力德生醫</name>
        <styleUrl>#icon-1899-0288D1-nodesc</styleUrl>
        <Point>
          <coordinates>
            120.3147162,22.6431066,0
          </coordinates>
        </Point>
      </Placemark>
      <Placemark>
        <name>7631聚賢研發</name>
        <styleUrl>#icon-1899-0288D1-nodesc</styleUrl>
        <Point>
          <coordinates>
            120.9632748,24.7980849,0
          </coordinates>
        </Point>
      </Placemark>
      <Placemark>
        <name>6980鐳洋</name>
        <styleUrl>#icon-1899-0288D1-nodesc</styleUrl>
        <Point>
          <coordinates>
            121.645707,25.061104,0
          </coordinates>
        </Point>
      </Placemark>
      <Placemark>
        <name>6973永立榮</name>
        <styleUrl>#icon-1899-0288D1-nodesc</styleUrl>
        <Point>
          <coordinates>
            121.6486619,25.0620313,0
          </coordinates>
        </Point>
      </Placemark>
      <Placemark>
        <name>3467台灣精材</name>
        <styleUrl>#icon-1899-0288D1-nodesc</styleUrl>
        <Point>
          <coordinates>
            121.0958147,24.8880716,0
          </coordinates>
        </Point>
      </Placemark>
      <Placemark>
        <name>1295生合</name>
        <styleUrl>#icon-1899-0288D1-nodesc</styleUrl>
        <Point>
          <coordinates>
            120.2749234,22.8272444,0
          </coordinates>
        </Point>
      </Placemark>
      <Placemark>
        <name>6904伯鑫</name>
        <styleUrl>#icon-1899-0288D1-nodesc</styleUrl>
        <Point>
          <coordinates>
            120.6722394,24.2527792,0
          </coordinates>
        </Point>
      </Placemark>
      <Placemark>
        <name>6937天虹</name>
        <description>6937</description>
        <styleUrl>#icon-1899-0288D1</styleUrl>
        <Point>
          <coordinates>
            121.0272551,24.8091652,0
          </coordinates>
        </Point>
      </Placemark>
      <Placemark>
        <name>6916華凌</name>
        <styleUrl>#icon-1899-0288D1-nodesc</styleUrl>
        <Point>
          <coordinates>
            120.6285624,24.225735,0
          </coordinates>
        </Point>
      </Placemark>
      <Placemark>
        <name>6742澤米</name>
        <styleUrl>#icon-1899-0288D1-nodesc</styleUrl>
        <Point>
          <coordinates>
            120.8817259,24.7097307,0
          </coordinates>
        </Point>
      </Placemark>
      <Placemark>
        <name>2358廷鑫</name>
        <styleUrl>#icon-1899-0288D1-nodesc</styleUrl>
        <Point>
          <coordinates>
            120.2261641,22.9253702,0
          </coordinates>
        </Point>
      </Placemark>
      <Placemark>
        <name>2509全坤建</name>
        <styleUrl>#icon-1899-0288D1-nodesc</styleUrl>
        <Point>
          <coordinates>
            121.5835167,25.0645815,0
          </coordinates>
        </Point>
      </Placemark>
      <Placemark>
        <name>3049精金</name>
        <styleUrl>#icon-1899-0288D1-nodesc</styleUrl>
        <Point>
          <coordinates>
            121.5785641,25.0592562,0
          </coordinates>
        </Point>
      </Placemark>
      <Placemark>
        <name>6116彩晶</name>
        <styleUrl>#icon-1899-0288D1-nodesc</styleUrl>
        <Point>
          <coordinates>
            121.5788472,25.0589237,0
          </coordinates>
        </Point>
      </Placemark>
      <Placemark>
        <name>3049精金</name>
        <styleUrl>#icon-1899-0288D1-nodesc</styleUrl>
        <Point>
          <coordinates>
            121.578746,25.0591154,0
          </coordinates>
        </Point>
      </Placemark>
      <Placemark>
        <name>3490單井</name>
        <styleUrl>#icon-1899-0288D1-nodesc</styleUrl>
        <Point>
          <coordinates>
            121.4299274,24.9679225,0
          </coordinates>
        </Point>
      </Placemark>
      <Placemark>
        <name>4916事欣科</name>
        <description>4916</description>
        <styleUrl>#icon-1899-0288D1</styleUrl>
        <Point>
          <coordinates>
            121.2393937,24.9816716,0
          </coordinates>
        </Point>
      </Placemark>
      <Placemark>
        <name>4578總格精密</name>
        <styleUrl>#icon-1899-0288D1-nodesc</styleUrl>
        <Point>
          <coordinates>
            120.5096662,24.2389388,0
          </coordinates>
        </Point>
      </Placemark>
      <Placemark>
        <name>1611中電</name>
        <styleUrl>#icon-1899-0288D1-nodesc</styleUrl>
        <Point>
          <coordinates>
            121.577272,25.058114,0
          </coordinates>
        </Point>
      </Placemark>
      <Placemark>
        <name>1609大亞</name>
        <styleUrl>#icon-1899-0288D1-nodesc</styleUrl>
        <Point>
          <coordinates>
            121.4489678,25.0703027,0
          </coordinates>
        </Point>
      </Placemark>
      <Placemark>
        <name>8034榮群</name>
        <styleUrl>#icon-1899-0288D1-nodesc</styleUrl>
        <Point>
          <coordinates>
            121.007951,24.7720307,0
          </coordinates>
        </Point>
      </Placemark>
      <Placemark>
        <name>6543普惠醫工</name>
        <styleUrl>#icon-1899-0288D1-nodesc</styleUrl>
        <Point>
          <coordinates>
            120.5499622,23.868483,0
          </coordinates>
        </Point>
      </Placemark>
      <Placemark>
        <name>4906正文</name>
        <styleUrl>#icon-1899-0288D1-nodesc</styleUrl>
        <Point>
          <coordinates>
            121.008987,24.8719188,0
          </coordinates>
        </Point>
      </Placemark>
      <Placemark>
        <name>2460建通</name>
        <styleUrl>#icon-1899-0288D1-nodesc</styleUrl>
        <Point>
          <coordinates>
            120.2708102,22.8531235,0
          </coordinates>
        </Point>
      </Placemark>
      <Placemark>
        <name>3447展達</name>
        <styleUrl>#icon-1899-0288D1-nodesc</styleUrl>
        <Point>
          <coordinates>
            121.4725936,25.0566705,0
          </coordinates>
        </Point>
      </Placemark>
      <Placemark>
        <name>2385群光</name>
        <styleUrl>#icon-1899-0288D1-nodesc</styleUrl>
        <Point>
          <coordinates>
            121.4726698,25.0564911,0
          </coordinates>
        </Point>
      </Placemark>
      <Placemark>
        <name>5443均豪</name>
        <styleUrl>#icon-1899-0288D1-nodesc</styleUrl>
        <Point>
          <coordinates>
            121.0005955,24.7740141,0
          </coordinates>
        </Point>
      </Placemark>
      <Placemark>
        <name>6187萬潤</name>
        <styleUrl>#icon-1899-0288D1-nodesc</styleUrl>
        <Point>
          <coordinates>
            120.2626777,22.8412372,0
          </coordinates>
        </Point>
      </Placemark>
      <Placemark>
        <name>3581博磊</name>
        <styleUrl>#icon-1899-0288D1-nodesc</styleUrl>
        <Point>
          <coordinates>
            120.9995368,24.8761487,0
          </coordinates>
        </Point>
      </Placemark>
      <Placemark>
        <name>4729熒茂</name>
        <styleUrl>#icon-1899-0288D1-nodesc</styleUrl>
        <Point>
          <coordinates>
            120.2592957,22.8361305,0
          </coordinates>
        </Point>
      </Placemark>
      <Placemark>
        <name>3013晟銘電</name>
        <styleUrl>#icon-1899-0288D1-nodesc</styleUrl>
        <Point>
          <coordinates>
            121.5837788,25.0689787,0
          </coordinates>
        </Point>
      </Placemark>
      <Placemark>
        <name>1618合機</name>
        <styleUrl>#icon-1899-0288D1-nodesc</styleUrl>
        <Point>
          <coordinates>
            121.1219625,25.0627619,0
          </coordinates>
        </Point>
      </Placemark>
      <Placemark>
        <name>1727中華化</name>
        <styleUrl>#icon-1899-0288D1-nodesc</styleUrl>
        <Point>
          <coordinates>
            121.121161,25.062475,0
          </coordinates>
        </Point>
      </Placemark>
      <Placemark>
        <name>2630亞航</name>
        <styleUrl>#icon-1899-0288D1-nodesc</styleUrl>
        <Point>
          <coordinates>
            120.2169801,22.9493092,0
          </coordinates>
        </Point>
      </Placemark>
      <Placemark>
        <name>日電貿集團</name>
        <styleUrl>#icon-1899-0288D1-nodesc</styleUrl>
        <Point>
          <coordinates>
            121.5343093,24.9856357,0
          </coordinates>
        </Point>
      </Placemark>
      <Placemark>
        <name>Yageo 國巨股份有限公司</name>
        <styleUrl>#icon-1899-0288D1-nodesc</styleUrl>
        <Point>
          <coordinates>
            121.5519677,24.9793279,0
          </coordinates>
        </Point>
      </Placemark>
      <Placemark>
        <name>Walsin Technology Corporation</name>
        <styleUrl>#icon-1899-0288D1-nodesc</styleUrl>
        <Point>
          <coordinates>
            121.1587564,24.9257403,0
          </coordinates>
        </Point>
      </Placemark>
      <Placemark>
        <name>Holy Stone Enterprise Corp.</name>
        <styleUrl>#icon-1899-0288D1-nodesc</styleUrl>
        <Point>
          <coordinates>
            121.5742959,25.0854627,0
          </coordinates>
        </Point>
      </Placemark>
      <Placemark>
        <name>Prosperity Dielectrics Co., Ltd.</name>
        <styleUrl>#icon-1899-0288D1-nodesc</styleUrl>
        <Point>
          <coordinates>
            121.1586073,24.9256976,0
          </coordinates>
        </Point>
      </Placemark>
      <Placemark>
        <name>8043蜜望實</name>
        <styleUrl>#icon-1899-0288D1-nodesc</styleUrl>
        <Point>
          <coordinates>
            121.5692672,25.0815982,0
          </coordinates>
        </Point>
      </Placemark>
      <Placemark>
        <name>I-Chiun Precision Industry Co., Ltd.</name>
        <styleUrl>#icon-1899-0288D1-nodesc</styleUrl>
        <Point>
          <coordinates>
            121.454517,25.0631969,0
          </coordinates>
        </Point>
      </Placemark>
      <Placemark>
        <name>鐳洋科技股份有限公司</name>
        <styleUrl>#icon-1899-0288D1-nodesc</styleUrl>
        <Point>
          <coordinates>
            121.645707,25.061104,0
          </coordinates>
        </Point>
      </Placemark>
      <Placemark>
        <name>合機電線電纜股份有限公司</name>
        <styleUrl>#icon-1899-0288D1-nodesc</styleUrl>
        <Point>
          <coordinates>
            121.543644,25.04589,0
          </coordinates>
        </Point>
      </Placemark>
      <Placemark>
        <name>雷笛克光學股份有限公司</name>
        <styleUrl>#icon-1899-0288D1-nodesc</styleUrl>
        <Point>
          <coordinates>
            121.4840226,25.0080749,0
          </coordinates>
        </Point>
      </Placemark>
      <Placemark>
        <name>瑞譜科技有限公司</name>
        <styleUrl>#icon-1899-0288D1-nodesc</styleUrl>
        <Point>
          <coordinates>
            120.9949387,24.8351542,0
          </coordinates>
        </Point>
      </Placemark>
      <Placemark>
        <name>三芳化學工業股份有限公司</name>
        <styleUrl>#icon-1899-0288D1-nodesc</styleUrl>
        <Point>
          <coordinates>
            120.3352089,22.721594,0
          </coordinates>
        </Point>
      </Placemark>
      <Placemark>
        <name>宏洲纖維工業股份有限公司桃園工廠</name>
        <styleUrl>#icon-1899-0288D1-nodesc</styleUrl>
        <Point>
          <coordinates>
            121.344375,25.010259,0
          </coordinates>
        </Point>
      </Placemark>
      <Placemark>
        <name>Taiwan 100 and Industrial Co., Ltd.</name>
        <styleUrl>#icon-1899-0288D1-nodesc</styleUrl>
        <Point>
          <coordinates>
            120.4893386,24.1325204,0
          </coordinates>
        </Point>
      </Placemark>
      <Placemark>
        <name>全訊科技股份有限公司(總部及一廠)</name>
        <styleUrl>#icon-1899-0288D1-nodesc</styleUrl>
        <Point>
          <coordinates>
            120.2869044,23.1060087,0
          </coordinates>
        </Point>
      </Placemark>
      <Placemark>
        <name>華友聯集團總部</name>
        <styleUrl>#icon-1899-0288D1-nodesc</styleUrl>
        <Point>
          <coordinates>
            120.3473025,22.6437054,0
          </coordinates>
        </Point>
      </Placemark>
      <Placemark>
        <name>年興紡織股份有限公司</name>
        <styleUrl>#icon-1899-0288D1-nodesc</styleUrl>
        <Point>
          <coordinates>
            121.5692058,25.0815067,0
          </coordinates>
        </Point>
      </Placemark>
      <Placemark>
        <name>Sun Race Sturmey-Archer Inc. 日馳企業股份有限公司</name>
        <styleUrl>#icon-1899-0288D1-nodesc</styleUrl>
        <Point>
          <coordinates>
            121.2601136,25.106888,0
          </coordinates>
        </Point>
      </Placemark>
      <Placemark>
        <name>1537廣隆</name>
        <styleUrl>#icon-1899-0288D1-nodesc</styleUrl>
        <Point>
          <coordinates>
            120.6636402,23.9307418,0
          </coordinates>
        </Point>
      </Placemark>
      <Placemark>
        <name>喬福機械 (總公司) Roundtop Machinery Industries Co Ltd (Johnford)</name>
        <styleUrl>#icon-1899-0288D1-nodesc</styleUrl>
        <Point>
          <coordinates>
            120.672848,24.254612,0
          </coordinates>
        </Point>
      </Placemark>
      <Placemark>
        <name>巧新科技工業股份有限公司斗六廠</name>
        <styleUrl>#icon-1899-0288D1-nodesc</styleUrl>
        <Point>
          <coordinates>
            120.5180486,23.7260599,0
          </coordinates>
        </Point>
      </Placemark>
      <Placemark>
        <name>吉茂精密股份有限公司</name>
        <styleUrl>#icon-1899-0288D1-nodesc</styleUrl>
        <Point>
          <coordinates>
            120.3483781,23.9168451,0
          </coordinates>
        </Point>
      </Placemark>
      <Placemark>
        <name>No. 28, Gongqu Rd</name>
        <styleUrl>#icon-1899-0288D1-nodesc</styleUrl>
        <Point>
          <coordinates>
            120.347522,23.9148624,0
          </coordinates>
        </Point>
      </Placemark>
      <Placemark>
        <name>世豐螺絲股份有限公司</name>
        <styleUrl>#icon-1899-0288D1-nodesc</styleUrl>
        <Point>
          <coordinates>
            120.2408954,22.794668,0
          </coordinates>
        </Point>
      </Placemark>
      <Placemark>
        <name>艾姆勒科技股份有限公司 總部</name>
        <styleUrl>#icon-1899-0288D1-nodesc</styleUrl>
        <Point>
          <coordinates>
            121.3811853,25.0905085,0
          </coordinates>
        </Point>
      </Placemark>
      <Placemark>
        <name>逸達生物科技</name>
        <styleUrl>#icon-1899-0288D1-nodesc</styleUrl>
        <Point>
          <coordinates>
            121.6128109,25.0565864,0
          </coordinates>
        </Point>
      </Placemark>
      <Placemark>
        <name>皇昌營造總公司</name>
        <styleUrl>#icon-1899-0288D1-nodesc</styleUrl>
        <Point>
          <coordinates>
            121.5996077,25.0606962,0
          </coordinates>
        </Point>
      </Placemark>
      <Placemark>
        <name>IN WIN Development Inc. Changhsing Factory</name>
        <styleUrl>#icon-1899-0288D1-nodesc</styleUrl>
        <Point>
          <coordinates>
            121.2878332,25.0719349,0
          </coordinates>
        </Point>
      </Placemark>
      <Placemark>
        <name>新復興微波通訊股份有限公司</name>
        <styleUrl>#icon-1899-0288D1-nodesc</styleUrl>
        <Point>
          <coordinates>
            121.0639579,24.9406809,0
          </coordinates>
        </Point>
      </Placemark>
      <Placemark>
        <name>廣化科技股份有限公司</name>
        <styleUrl>#icon-1899-0288D1-nodesc</styleUrl>
        <Point>
          <coordinates>
            120.9873203,24.8669476,0
          </coordinates>
        </Point>
      </Placemark>
      <Placemark>
        <name>協益電子股份有限公司</name>
        <styleUrl>#icon-1899-0288D1-nodesc</styleUrl>
        <Point>
          <coordinates>
            121.1252079,25.0574674,0
          </coordinates>
        </Point>
      </Placemark>
      <Placemark>
        <name>金利精密工業股份有限公司</name>
        <styleUrl>#icon-1899-0288D1-nodesc</styleUrl>
        <Point>
          <coordinates>
            121.1981673,24.9006897,0
          </coordinates>
        </Point>
      </Placemark>
      <Placemark>
        <name>穎崴科技股份有限公司</name>
        <styleUrl>#icon-1899-0288D1-nodesc</styleUrl>
        <Point>
          <coordinates>
            121.017649,24.842417,0
          </coordinates>
        </Point>
      </Placemark>
      <Placemark>
        <name>Winway Technology Co., Ltd.</name>
        <styleUrl>#icon-1899-0288D1-nodesc</styleUrl>
        <Point>
          <coordinates>
            120.3008452,22.7129894,0
          </coordinates>
        </Point>
      </Placemark>
      <Placemark>
        <name>6584南俊國際</name>
        <styleUrl>#icon-1899-0288D1-nodesc</styleUrl>
        <Point>
          <coordinates>
            121.2991981,25.0284865,0
          </coordinates>
        </Point>
      </Placemark>
      <Placemark>
        <name>金居開發股份有限公司-斗六三廠</name>
        <styleUrl>#icon-1899-0288D1-nodesc</styleUrl>
        <Point>
          <coordinates>
            120.5108373,23.7120594,0
          </coordinates>
        </Point>
      </Placemark>
      <Placemark>
        <name>聯上開發股份有限公司</name>
        <styleUrl>#icon-1899-0288D1-nodesc</styleUrl>
        <Point>
          <coordinates>
            121.5667909,25.0405444,0
          </coordinates>
        </Point>
      </Placemark>
      <Placemark>
        <name>聯上實業股份有限公司</name>
        <styleUrl>#icon-1899-0288D1-nodesc</styleUrl>
        <Point>
          <coordinates>
            120.3064536,22.6634647,0
          </coordinates>
        </Point>
      </Placemark>
      <Placemark>
        <name>Neousys Technology 宸曜科技</name>
        <styleUrl>#icon-1899-0288D1-nodesc</styleUrl>
        <Point>
          <coordinates>
            121.4843328,25.0059035,0
          </coordinates>
        </Point>
      </Placemark>
      <Placemark>
        <name>Jung Shing Wire Industrial Co., Ltd.</name>
        <styleUrl>#icon-1899-0288D1-nodesc</styleUrl>
        <Point>
          <coordinates>
            120.2547842,22.9783508,0
          </coordinates>
        </Point>
      </Placemark>
      <Placemark>
        <name>晶呈科技股份有限公司</name>
        <styleUrl>#icon-1899-0288D1-nodesc</styleUrl>
        <Point>
          <coordinates>
            120.891521,24.7041757,0
          </coordinates>
        </Point>
      </Placemark>
      <Placemark>
        <name>醫影股份有限公司</name>
        <styleUrl>#icon-1899-0288D1-nodesc</styleUrl>
        <Point>
          <coordinates>
            121.578971,25.041154,0
          </coordinates>
        </Point>
      </Placemark>
      <Placemark>
        <name>新復興微波通訊股份有限公司</name>
        <styleUrl>#icon-1899-0288D1-nodesc</styleUrl>
        <Point>
          <coordinates>
            121.0639579,24.9406809,0
          </coordinates>
        </Point>
      </Placemark>
      <Placemark>
        <name>6227茂綸</name>
        <styleUrl>#icon-1899-0288D1-nodesc</styleUrl>
        <Point>
          <coordinates>
            121.5401128,24.9848747,0
          </coordinates>
        </Point>
      </Placemark>
      <Placemark>
        <name>銘鈺精密工業股份有限公司</name>
        <styleUrl>#icon-1899-0288D1-nodesc</styleUrl>
        <Point>
          <coordinates>
            121.1114919,25.059343,0
          </coordinates>
        </Point>
      </Placemark>
      <Placemark>
        <name>Wus Printed Electronics Co., Ltd.</name>
        <styleUrl>#icon-1899-0288D1-nodesc</styleUrl>
        <Point>
          <coordinates>
            120.3041153,22.7209306,0
          </coordinates>
        </Point>
      </Placemark>
      <Placemark>
        <name>6216居易</name>
        <styleUrl>#icon-1899-0288D1-nodesc</styleUrl>
        <Point>
          <coordinates>
            121.0052072,24.8689538,0
          </coordinates>
        </Point>
      </Placemark>
      <Placemark>
        <name>鈺緯科技</name>
        <styleUrl>#icon-1899-0288D1-nodesc</styleUrl>
        <Point>
          <coordinates>
            121.4906014,25.003228,0
          </coordinates>
        </Point>
      </Placemark>
      <Placemark>
        <name>廣錠科技股份有限公司汐止廠</name>
        <styleUrl>#icon-1899-0288D1-nodesc</styleUrl>
        <Point>
          <coordinates>
            121.6853072,25.0717191,0
          </coordinates>
        </Point>
      </Placemark>
      <Placemark>
        <name>6560欣普羅</name>
        <styleUrl>#icon-1899-0288D1-nodesc</styleUrl>
        <Point>
          <coordinates>
            121.4599921,25.0389269,0
          </coordinates>
        </Point>
      </Placemark>
      <Placemark>
        <name>3623富晶通</name>
        <styleUrl>#icon-1899-0288D1-nodesc</styleUrl>
        <Point>
          <coordinates>
            121.3786164,25.047982,0
          </coordinates>
        </Point>
      </Placemark>
      <Placemark>
        <name>4526東台</name>
        <styleUrl>#icon-1899-0288D1-nodesc</styleUrl>
        <Point>
          <coordinates>
            120.258903,22.8313257,0
          </coordinates>
        </Point>
      </Placemark>
      <Placemark>
        <name>8489三貝德數位文創股份有限公司</name>
        <styleUrl>#icon-1899-0288D1-nodesc</styleUrl>
        <Point>
          <coordinates>
            121.468381,25.0453675,0
          </coordinates>
        </Point>
      </Placemark>
      <Placemark>
        <name>6589ABC-KY</name>
        <styleUrl>#icon-1899-0288D1-nodesc</styleUrl>
        <Point>
          <coordinates>
            121.5778474,25.0649507,0
          </coordinates>
        </Point>
      </Placemark>
      <Placemark>
        <name>6021美好金融 台北總公司</name>
        <styleUrl>#icon-1899-0288D1-nodesc</styleUrl>
        <Point>
          <coordinates>
            121.5358359,25.0576534,0
          </coordinates>
        </Point>
      </Placemark>
      <Placemark>
        <name>5468凱鈺科技股份有限公司</name>
        <styleUrl>#icon-1899-0288D1-nodesc</styleUrl>
        <Point>
          <coordinates>
            120.1372298,23.0413497,0
          </coordinates>
        </Point>
      </Placemark>
      <Placemark>
        <name>3713新晶投控</name>
        <styleUrl>#icon-1899-0288D1-nodesc</styleUrl>
        <Point>
          <coordinates>
            121.5194075,25.0319251,0
          </coordinates>
        </Point>
      </Placemark>
      <Placemark>
        <name>8477創業家兄弟股份有限公司</name>
        <styleUrl>#icon-1899-0288D1-nodesc</styleUrl>
        <Point>
          <coordinates>
            121.6132482,25.0565476,0
          </coordinates>
        </Point>
      </Placemark>
      <Placemark>
        <name>3276宇環科技股份有限公司</name>
        <styleUrl>#icon-1899-0288D1-nodesc</styleUrl>
        <Point>
          <coordinates>
            121.270188,25.0624792,0
          </coordinates>
        </Point>
      </Placemark>
      <Placemark>
        <name>8277商丞科技股份有限公司</name>
        <styleUrl>#icon-1899-0288D1-nodesc</styleUrl>
        <Point>
          <coordinates>
            121.5691325,25.0799875,0
          </coordinates>
        </Point>
      </Placemark>
      <Placemark>
        <name>6431光麗-KY</name>
        <styleUrl>#icon-1899-0288D1-nodesc</styleUrl>
        <Point>
          <coordinates>
            121.5364688,25.0545099,0
          </coordinates>
        </Point>
      </Placemark>
      <Placemark>
        <name>4529淳紳</name>
        <styleUrl>#icon-1899-0288D1-nodesc</styleUrl>
        <Point>
          <coordinates>
            121.5572479,25.0314607,0
          </coordinates>
        </Point>
      </Placemark>
      <Placemark>
        <name>6442光聖</name>
        <styleUrl>#icon-1899-0288D1-nodesc</styleUrl>
        <Point>
          <coordinates>
            121.4595526,25.1565829,0
          </coordinates>
        </Point>
      </Placemark>
      <Placemark>
        <name>4549FineTek Co., Ltd.</name>
        <styleUrl>#icon-1899-0288D1-nodesc</styleUrl>
        <Point>
          <coordinates>
            121.4316452,24.9709913,0
          </coordinates>
        </Point>
      </Placemark>
      <Placemark>
        <name>8374羅昇企業股份有限公司</name>
        <styleUrl>#icon-1899-0288D1-nodesc</styleUrl>
        <Point>
          <coordinates>
            121.4451699,25.054681,0
          </coordinates>
        </Point>
      </Placemark>
      <Placemark>
        <name>6834天二科技股份有限公司</name>
        <styleUrl>#icon-1899-0288D1-nodesc</styleUrl>
        <Point>
          <coordinates>
            120.2945816,22.5939917,0
          </coordinates>
        </Point>
      </Placemark>
      <Placemark>
        <name>4924欣厚科技</name>
        <styleUrl>#icon-1899-0288D1-nodesc</styleUrl>
        <Point>
          <coordinates>
            121.5231087,25.0493766,0
          </coordinates>
        </Point>
      </Placemark>
      <Placemark>
        <name>4915Primax Electronics Ltd.</name>
        <styleUrl>#icon-1899-0288D1-nodesc</styleUrl>
        <Point>
          <coordinates>
            121.5656377,25.0809997,0
          </coordinates>
        </Point>
      </Placemark>
      <Placemark>
        <name>6640均華土城廠GMM</name>
        <styleUrl>#icon-1899-0288D1-nodesc</styleUrl>
        <Point>
          <coordinates>
            121.4153529,24.9602303,0
          </coordinates>
        </Point>
      </Placemark>
      <Placemark>
        <name>6451訊芯科技股份有限公司</name>
        <styleUrl>#icon-1899-0288D1-nodesc</styleUrl>
        <Point>
          <coordinates>
            121.414236,24.961155,0
          </coordinates>
        </Point>
      </Placemark>
      <Placemark>
        <name>6890來億興業股份有限公司(旺隆)</name>
        <styleUrl>#icon-1899-0288D1-nodesc</styleUrl>
        <Point>
          <coordinates>
            120.6602853,24.2208561,0
          </coordinates>
        </Point>
      </Placemark>
      <Placemark>
        <name>3483力致科技股份有限公司</name>
        <styleUrl>#icon-1899-0288D1-nodesc</styleUrl>
        <Point>
          <coordinates>
            121.0084221,24.8405642,0
          </coordinates>
        </Point>
      </Placemark>
      <Placemark>
        <name>3374Xintec Technology Co., Ltd.</name>
        <styleUrl>#icon-1899-0288D1-nodesc</styleUrl>
        <Point>
          <coordinates>
            121.2450967,24.9794781,0
          </coordinates>
        </Point>
      </Placemark>
      <Placemark>
        <name>4555臺灣氣立股份有限公司</name>
        <styleUrl>#icon-1899-0288D1-nodesc</styleUrl>
        <Point>
          <coordinates>
            121.4221437,25.031137,0
          </coordinates>
        </Point>
      </Placemark>
      <Placemark>
        <name>5013強新工業股份有限公司</name>
        <styleUrl>#icon-1899-0288D1-nodesc</styleUrl>
        <Point>
          <coordinates>
            120.1788565,23.1838669,0
          </coordinates>
        </Point>
      </Placemark>
      <Placemark>
        <name>5310天剛</name>
        <styleUrl>#icon-1899-0288D1-nodesc</styleUrl>
        <Point>
          <coordinates>
            121.5184792,25.0560686,0
          </coordinates>
        </Point>
      </Placemark>
      <Placemark>
        <name>6284INPAQ Technology Co., Ltd.</name>
        <styleUrl>#icon-1899-0288D1-nodesc</styleUrl>
        <Point>
          <coordinates>
            120.909717,24.726298,0
          </coordinates>
        </Point>
      </Placemark>
      <Placemark>
        <name>2468Fortune Information</name>
        <styleUrl>#icon-1899-0288D1-nodesc</styleUrl>
        <Point>
          <coordinates>
            121.5803403,25.0617056,0
          </coordinates>
        </Point>
      </Placemark>
      <Placemark>
        <name>6535順天醫藥生技股份有限公司</name>
        <styleUrl>#icon-1899-0288D1-nodesc</styleUrl>
        <Point>
          <coordinates>
            121.6119641,25.056818,0
          </coordinates>
        </Point>
      </Placemark>
      <Placemark>
        <name>1219福壽</name>
        <styleUrl>#icon-1899-0288D1-nodesc</styleUrl>
        <Point>
          <coordinates>
            120.5585574,24.2312467,0
          </coordinates>
        </Point>
      </Placemark>
      <Placemark>
        <name>1227佳格</name>
        <styleUrl>#icon-1899-0288D1-nodesc</styleUrl>
        <Point>
          <coordinates>
            121.5656613,25.0803702,0
          </coordinates>
        </Point>
      </Placemark>
      <Placemark>
        <name>2597潤弘</name>
        <styleUrl>#icon-1899-0288D1-nodesc</styleUrl>
        <Point>
          <coordinates>
            121.5425141,25.046942,0
          </coordinates>
        </Point>
      </Placemark>
      <Placemark>
        <name>3122笙泉</name>
        <styleUrl>#icon-1899-0288D1-nodesc</styleUrl>
        <Point>
          <coordinates>
            121.0186823,24.8420816,0
          </coordinates>
        </Point>
      </Placemark>
      <Placemark>
        <name>6164華興</name>
        <styleUrl>#icon-1899-0288D1-nodesc</styleUrl>
        <Point>
          <coordinates>
            121.5338662,24.9851673,0
          </coordinates>
        </Point>
      </Placemark>
      <Placemark>
        <name>1532勤美</name>
        <styleUrl>#icon-1899-0288D1-nodesc</styleUrl>
        <Point>
          <coordinates>
            121.5477843,25.0383537,0
          </coordinates>
        </Point>
      </Placemark>
      <Placemark>
        <name>2906高林</name>
        <styleUrl>#icon-1899-0288D1-nodesc</styleUrl>
        <Point>
          <coordinates>
            121.549533,25.057112,0
          </coordinates>
        </Point>
      </Placemark>
      <Placemark>
        <name>4728雙美</name>
        <styleUrl>#icon-1899-0288D1-nodesc</styleUrl>
        <Point>
          <coordinates>
            120.283993,23.0943294,0
          </coordinates>
        </Point>
      </Placemark>
      <Placemark>
        <name>5225東科-KY</name>
        <styleUrl>#icon-1899-0288D1-nodesc</styleUrl>
        <Point>
          <coordinates>
            121.5502465,24.9778448,0
          </coordinates>
        </Point>
      </Placemark>
      <Placemark>
        <name>5493三聯</name>
        <styleUrl>#icon-1899-0288D1-nodesc</styleUrl>
        <Point>
          <coordinates>
            120.2662495,22.8098619,0
          </coordinates>
        </Point>
      </Placemark>
      <Placemark>
        <name>8467波力-KY</name>
        <styleUrl>#icon-1899-0288D1-nodesc</styleUrl>
        <Point>
          <coordinates>
            120.7119045,24.2295567,0
          </coordinates>
        </Point>
      </Placemark>
      <Placemark>
        <name>1220台榮</name>
        <styleUrl>#icon-1899-0288D1-nodesc</styleUrl>
        <Point>
          <coordinates>
            121.535479,25.05172,0
          </coordinates>
        </Point>
      </Placemark>
      <Placemark>
        <name>1229聯華</name>
        <styleUrl>#icon-1899-0288D1-nodesc</styleUrl>
        <Point>
          <coordinates>
            121.6114081,25.0550144,0
          </coordinates>
        </Point>
      </Placemark>
      <Placemark>
        <name>3706神達</name>
        <styleUrl>#icon-1899-0288D1-nodesc</styleUrl>
        <Point>
          <coordinates>
            121.6115636,25.0545407,0
          </coordinates>
        </Point>
      </Placemark>
      <Placemark>
        <name>1304台聚</name>
        <styleUrl>#icon-1899-0288D1-nodesc</styleUrl>
        <Point>
          <coordinates>
            120.3376327,22.7139428,0
          </coordinates>
        </Point>
      </Placemark>
      <Placemark>
        <name>6005群益證</name>
        <styleUrl>#icon-1899-0288D1-nodesc</styleUrl>
        <Point>
          <coordinates>
            121.5478204,25.0572371,0
          </coordinates>
        </Point>
      </Placemark>
      <Placemark>
        <name>2007燁興</name>
        <styleUrl>#icon-1899-0288D1-nodesc</styleUrl>
        <Point>
          <coordinates>
            120.2740647,22.7709672,0
          </coordinates>
        </Point>
      </Placemark>
      <Placemark>
        <name>1308亞聚</name>
        <styleUrl>#icon-1899-0288D1-nodesc</styleUrl>
        <Point>
          <coordinates>
            120.4068083,22.501852,0
          </coordinates>
        </Point>
      </Placemark>
      <Placemark>
        <name>1324地球</name>
        <styleUrl>#icon-1899-0288D1-nodesc</styleUrl>
        <Point>
          <coordinates>
            121.538101,25.0522989,0
          </coordinates>
        </Point>
      </Placemark>
      <Placemark>
        <name>2227裕日車</name>
        <styleUrl>#icon-1899-0288D1-nodesc</styleUrl>
        <Point>
          <coordinates>
            120.7532793,24.3861642,0
          </coordinates>
        </Point>
      </Placemark>
      <Placemark>
        <name>2440太空梭</name>
        <styleUrl>#icon-1899-0288D1-nodesc</styleUrl>
        <Point>
          <coordinates>
            121.0098623,24.8454728,0
          </coordinates>
        </Point>
      </Placemark>
      <Placemark>
        <name>5014建錩實業</name>
        <styleUrl>#icon-1899-0288D1-nodesc</styleUrl>
        <Point>
          <coordinates>
            121.191849,25.0656398,0
          </coordinates>
        </Point>
      </Placemark>
      <Placemark>
        <name>6585鼎基</name>
        <styleUrl>#icon-1899-0288D1-nodesc</styleUrl>
        <Point>
          <coordinates>
            120.3711247,22.5566787,0
          </coordinates>
        </Point>
      </Placemark>
      <Placemark>
        <name>3276宇環</name>
        <styleUrl>#icon-1899-0288D1-nodesc</styleUrl>
        <Point>
          <coordinates>
            121.270188,25.0624792,0
          </coordinates>
        </Point>
      </Placemark>
      <Placemark>
        <name>2467志聖</name>
        <styleUrl>#icon-1899-0288D1-nodesc</styleUrl>
        <Point>
          <coordinates>
            121.3725397,25.0734155,0
          </coordinates>
        </Point>
      </Placemark>
      <Placemark>
        <name>8050廣積</name>
        <styleUrl>#icon-1899-0288D1-nodesc</styleUrl>
        <Point>
          <coordinates>
            121.4703447,25.0533649,0
          </coordinates>
        </Point>
      </Placemark>
      <Placemark>
        <name>4414如興</name>
        <styleUrl>#icon-1899-0288D1-nodesc</styleUrl>
        <Point>
          <coordinates>
            121.5442261,25.050593,0
          </coordinates>
        </Point>
      </Placemark>
      <Placemark>
        <name>1102亞洲水泥</name>
        <styleUrl>#icon-1899-0288D1-nodesc</styleUrl>
        <Point>
          <coordinates>
            121.549306,25.025986,0
          </coordinates>
        </Point>
      </Placemark>
      <Placemark>
        <name>5907大洋-KY</name>
        <styleUrl>#icon-1899-0288D1-nodesc</styleUrl>
        <Point>
          <coordinates>
            121.543826,25.026013,0
          </coordinates>
        </Point>
      </Placemark>
      <Placemark>
        <name>2368金像電</name>
        <styleUrl>#icon-1899-0288D1-nodesc</styleUrl>
        <Point>
          <coordinates>
            121.2365018,24.9848553,0
          </coordinates>
        </Point>
      </Placemark>
      <Placemark>
        <name>4584君帆</name>
        <styleUrl>#icon-1899-0288D1-nodesc</styleUrl>
        <Point>
          <coordinates>
            120.2787157,23.035591,0
          </coordinates>
        </Point>
      </Placemark>
      <Placemark>
        <name>2436偉詮電</name>
        <styleUrl>#icon-1899-0288D1-nodesc</styleUrl>
        <Point>
          <coordinates>
            121.0052562,24.7725734,0
          </coordinates>
        </Point>
      </Placemark>
      <Placemark>
        <name>3257虹冠電</name>
        <styleUrl>#icon-1899-0288D1-nodesc</styleUrl>
        <Point>
          <coordinates>
            120.9996823,24.77932,0
          </coordinates>
        </Point>
      </Placemark>
      <Placemark>
        <name>3288點晶</name>
        <styleUrl>#icon-1899-0288D1-nodesc</styleUrl>
        <Point>
          <coordinates>
            121.0014357,24.7836497,0
          </coordinates>
        </Point>
      </Placemark>
      <Placemark>
        <name>3317尼克森</name>
        <styleUrl>#icon-1899-0288D1-nodesc</styleUrl>
        <Point>
          <coordinates>
            121.633221,25.059877,0
          </coordinates>
        </Point>
      </Placemark>
      <Placemark>
        <name>3527聚積</name>
        <styleUrl>#icon-1899-0288D1-nodesc</styleUrl>
        <Point>
          <coordinates>
            121.0078179,24.7928969,0
          </coordinates>
        </Point>
      </Placemark>
      <Placemark>
        <name>4951精拓科</name>
        <styleUrl>#icon-1899-0288D1-nodesc</styleUrl>
        <Point>
          <coordinates>
            121.0170381,24.8428815,0
          </coordinates>
        </Point>
      </Placemark>
      <Placemark>
        <name>4961天鈺</name>
        <styleUrl>#icon-1899-0288D1-nodesc</styleUrl>
        <Point>
          <coordinates>
            121.0230624,24.7703795,0
          </coordinates>
        </Point>
      </Placemark>
      <Placemark>
        <name>3018隆銘綠能</name>
        <styleUrl>#icon-1899-0288D1-nodesc</styleUrl>
        <Point>
          <coordinates>
            121.5517819,25.0815243,0
          </coordinates>
        </Point>
      </Placemark>
      <Placemark>
        <name>2359所羅門</name>
        <styleUrl>#icon-1899-0288D1-nodesc</styleUrl>
        <Point>
          <coordinates>
            121.5783319,25.065289,0
          </coordinates>
        </Point>
      </Placemark>
      <Placemark>
        <name>2468華經</name>
        <styleUrl>#icon-1899-0288D1-nodesc</styleUrl>
        <Point>
          <coordinates>
            121.5803403,25.0617056,0
          </coordinates>
        </Point>
      </Placemark>
      <Placemark>
        <name>6790永豐實</name>
        <styleUrl>#icon-1899-0288D1-nodesc</styleUrl>
        <Point>
          <coordinates>
            121.5148865,25.0312909,0
          </coordinates>
        </Point>
      </Placemark>
      <Placemark>
        <name>6781AES-KY</name>
        <styleUrl>#icon-1899-0288D1-nodesc</styleUrl>
        <Point>
          <coordinates>
            121.0793043,24.885071,0
          </coordinates>
        </Point>
      </Placemark>
      <Placemark>
        <name>6121新普</name>
        <styleUrl>#icon-1899-0288D1-nodesc</styleUrl>
        <Point>
          <coordinates>
            121.0790698,24.885658,0
          </coordinates>
        </Point>
      </Placemark>
      <Placemark>
        <name>4109加捷生醫</name>
        <styleUrl>#icon-1899-0288D1-nodesc</styleUrl>
        <Point>
          <coordinates>
            120.3424711,22.6364233,0
          </coordinates>
        </Point>
      </Placemark>
      <Placemark>
        <name>6117迎廣</name>
        <styleUrl>#icon-1899-0288D1-nodesc</styleUrl>
        <Point>
          <coordinates>
            121.3037813,25.0432589,0
          </coordinates>
        </Point>
      </Placemark>
      <Placemark>
        <name>6176瑞儀</name>
        <styleUrl>#icon-1899-0288D1-nodesc</styleUrl>
        <Point>
          <coordinates>
            120.2925843,22.5998656,0
          </coordinates>
        </Point>
      </Placemark>
      <Placemark>
        <name>2881富邦金</name>
        <styleUrl>#icon-1899-0288D1-nodesc</styleUrl>
        <Point>
          <coordinates>
            121.5425872,25.0530796,0
          </coordinates>
        </Point>
      </Placemark>
      <Placemark>
        <name>4545銘鈺</name>
        <styleUrl>#icon-1899-0288D1-nodesc</styleUrl>
        <Point>
          <coordinates>
            121.1114919,25.059343,0
          </coordinates>
        </Point>
      </Placemark>
      <Placemark>
        <name>3492長盛</name>
        <styleUrl>#icon-1899-0288D1-nodesc</styleUrl>
        <Point>
          <coordinates>
            121.4597665,25.1548383,0
          </coordinates>
        </Point>
      </Placemark>
      <Placemark>
        <name>2451創見</name>
        <styleUrl>#icon-1899-0288D1-nodesc</styleUrl>
        <Point>
          <coordinates>
            121.5807797,25.0663865,0
          </coordinates>
        </Point>
      </Placemark>
      <Placemark>
        <name>2884玉山金</name>
        <styleUrl>#icon-1899-0288D1-nodesc</styleUrl>
        <Point>
          <coordinates>
            121.5500994,25.0592741,0
          </coordinates>
        </Point>
      </Placemark>
      <Placemark>
        <name>4207環泰</name>
        <styleUrl>#icon-1899-0288D1-nodesc</styleUrl>
        <Point>
          <coordinates>
            121.2926285,25.0494816,0
          </coordinates>
        </Point>
      </Placemark>
      <Placemark>
        <name>6838台新藥</name>
        <styleUrl>#icon-1899-0288D1-nodesc</styleUrl>
        <Point>
          <coordinates>
            121.5442261,25.050593,0
          </coordinates>
        </Point>
      </Placemark>
      <Placemark>
        <name>6561是方</name>
        <styleUrl>#icon-1899-0288D1-nodesc</styleUrl>
        <Point>
          <coordinates>
            121.5820351,25.0707676,0
          </coordinates>
        </Point>
      </Placemark>
      <Placemark>
        <name>2471資通</name>
        <styleUrl>#icon-1899-0288D1-nodesc</styleUrl>
        <Point>
          <coordinates>
            121.5232795,25.0602754,0
          </coordinates>
        </Point>
      </Placemark>
      <Placemark>
        <name>5425台半</name>
        <styleUrl>#icon-1899-0288D1-nodesc</styleUrl>
        <Point>
          <coordinates>
            121.7331096,24.7809176,0
          </coordinates>
        </Point>
      </Placemark>
      <Placemark>
        <name>6446藥華藥</name>
        <styleUrl>#icon-1899-0288D1-nodesc</styleUrl>
        <Point>
          <coordinates>
            121.6118825,25.0584861,0
          </coordinates>
        </Point>
      </Placemark>
      <Placemark>
        <name>8255朋程</name>
        <styleUrl>#icon-1899-0288D1-nodesc</styleUrl>
        <Point>
          <coordinates>
            121.2802505,25.0577241,0
          </coordinates>
        </Point>
      </Placemark>
      <Placemark>
        <name>8476台境</name>
        <styleUrl>#icon-1899-0288D1-nodesc</styleUrl>
        <Point>
          <coordinates>
            120.3137297,22.630237,0
          </coordinates>
        </Point>
      </Placemark>
      <Placemark>
        <name>3227原相</name>
        <styleUrl>#icon-1899-0288D1-nodesc</styleUrl>
        <Point>
          <coordinates>
            121.0003867,24.7737793,0
          </coordinates>
        </Point>
      </Placemark>
      <Placemark>
        <name>2465麗臺</name>
        <styleUrl>#icon-1899-0288D1-nodesc</styleUrl>
        <Point>
          <coordinates>
            121.4876185,24.9978164,0
          </coordinates>
        </Point>
      </Placemark>
      <Placemark>
        <name>7402邑錡</name>
        <styleUrl>#icon-1899-0288D1-nodesc</styleUrl>
        <Point>
          <coordinates>
            121.5695849,25.0809084,0
          </coordinates>
        </Point>
      </Placemark>
      <Placemark>
        <name>8930青鋼</name>
        <styleUrl>#icon-1899-0288D1-nodesc</styleUrl>
        <Point>
          <coordinates>
            120.3227903,23.2063829,0
          </coordinates>
        </Point>
      </Placemark>
      <Placemark>
        <name>6231系微</name>
        <styleUrl>#icon-1899-0288D1-nodesc</styleUrl>
        <Point>
          <coordinates>
            121.5364839,25.0589274,0
          </coordinates>
        </Point>
      </Placemark>
      <Placemark>
        <name>2618長榮航</name>
        <styleUrl>#icon-1899-0288D1-nodesc</styleUrl>
        <Point>
          <coordinates>
            121.2971015,25.0401698,0
          </coordinates>
        </Point>
      </Placemark>
      <Placemark>
        <name>5706鳳凰</name>
        <styleUrl>#icon-1899-0288D1-nodesc</styleUrl>
        <Point>
          <coordinates>
            121.524044,25.049407,0
          </coordinates>
        </Point>
      </Placemark>
      <Placemark>
        <name>2454聯發科</name>
        <styleUrl>#icon-1899-0288D1-nodesc</styleUrl>
        <Point>
          <coordinates>
            121.0232623,24.7722707,0
          </coordinates>
        </Point>
      </Placemark>
      <Placemark>
        <name>4966譜瑞-KY</name>
        <styleUrl>#icon-1899-0288D1-nodesc</styleUrl>
        <Point>
          <coordinates>
            121.5742472,25.0770618,0
          </coordinates>
        </Point>
      </Placemark>
      <Placemark>
        <name>4533協易機</name>
        <styleUrl>#icon-1899-0288D1-nodesc</styleUrl>
        <Point>
          <coordinates>
            121.305695,25.044659,0
          </coordinates>
        </Point>
      </Placemark>
      <Placemark>
        <name>2615萬海</name>
        <styleUrl>#icon-1899-0288D1-nodesc</styleUrl>
        <Point>
          <coordinates>
            121.5328126,25.0530349,0
          </coordinates>
        </Point>
      </Placemark>
      <Placemark>
        <name>2609陽明</name>
        <styleUrl>#icon-1899-0288D1-nodesc</styleUrl>
        <Point>
          <coordinates>
            121.7109313,25.0944587,0
          </coordinates>
        </Point>
      </Placemark>
      <Placemark>
        <name>6270倍微</name>
        <styleUrl>#icon-1899-0288D1-nodesc</styleUrl>
        <Point>
          <coordinates>
            121.645707,25.061104,0
          </coordinates>
        </Point>
      </Placemark>
      <Placemark>
        <name>2356英業達</name>
        <styleUrl>#icon-1899-0288D1-nodesc</styleUrl>
        <Point>
          <coordinates>
            121.5216026,25.0853879,0
          </coordinates>
        </Point>
      </Placemark>
      <Placemark>
        <name>6269台郡</name>
        <styleUrl>#icon-1899-0288D1-nodesc</styleUrl>
        <Point>
          <coordinates>
            120.4238436,22.5804045,0
          </coordinates>
        </Point>
      </Placemark>
      <Placemark>
        <name>6263普萊德</name>
        <styleUrl>#icon-1899-0288D1-nodesc</styleUrl>
        <Point>
          <coordinates>
            121.5367155,24.983014,0
          </coordinates>
        </Point>
      </Placemark>
      <Placemark>
        <name>5230雷笛克光學</name>
        <styleUrl>#icon-1899-0288D1-nodesc</styleUrl>
        <Point>
          <coordinates>
            121.4840226,25.0080749,0
          </coordinates>
        </Point>
      </Placemark>
      <Placemark>
        <name>2365昆盈</name>
        <styleUrl>#icon-1899-0288D1-nodesc</styleUrl>
        <Point>
          <coordinates>
            121.4735059,25.0468105,0
          </coordinates>
        </Point>
      </Placemark>
      <Placemark>
        <name>3481群創</name>
        <styleUrl>#icon-1899-0288D1-nodesc</styleUrl>
        <Point>
          <coordinates>
            120.9146606,24.7144072,0
          </coordinates>
        </Point>
      </Placemark>
      <Placemark>
        <name>3024憶聲</name>
        <styleUrl>#icon-1899-0288D1-nodesc</styleUrl>
        <Point>
          <coordinates>
            121.2395253,24.9867597,0
          </coordinates>
        </Point>
      </Placemark>
      <Placemark>
        <name>2887臺新金</name>
        <styleUrl>#icon-1899-0288D1-nodesc</styleUrl>
        <Point>
          <coordinates>
            121.5498126,25.0373754,0
          </coordinates>
        </Point>
      </Placemark>
      <Placemark>
        <name>6902走著瞧-創</name>
        <styleUrl>#icon-1899-0288D1-nodesc</styleUrl>
        <Point>
          <coordinates>
            121.5492911,25.0226258,0
          </coordinates>
        </Point>
      </Placemark>
      <Placemark>
        <name>5515建國</name>
        <styleUrl>#icon-1899-0288D1-nodesc</styleUrl>
        <Point>
          <coordinates>
            121.5493622,25.0307925,0
          </coordinates>
        </Point>
      </Placemark>
      <Placemark>
        <name>6414樺漢</name>
        <styleUrl>#icon-1899-0288D1-nodesc</styleUrl>
        <Point>
          <coordinates>
            121.486466,24.9997957,0
          </coordinates>
        </Point>
      </Placemark>
      <Placemark>
        <name>5215科嘉-KY</name>
        <styleUrl>#icon-1899-0288D1-nodesc</styleUrl>
        <Point>
          <coordinates>
            121.4935058,24.9974679,0
          </coordinates>
        </Point>
      </Placemark>
      <Placemark>
        <name>1235興泰</name>
        <styleUrl>#icon-1899-0288D1-nodesc</styleUrl>
        <Point>
          <coordinates>
            120.3217459,22.6906774,0
          </coordinates>
        </Point>
      </Placemark>
      <Placemark>
        <name>6177達麗</name>
        <styleUrl>#icon-1899-0288D1-nodesc</styleUrl>
        <Point>
          <coordinates>
            121.5360961,25.0504118,0
          </coordinates>
        </Point>
      </Placemark>
      <Placemark>
        <name>1220台榮</name>
        <styleUrl>#icon-1899-0288D1-nodesc</styleUrl>
        <Point>
          <coordinates>
            121.535479,25.05172,0
          </coordinates>
        </Point>
      </Placemark>
      <Placemark>
        <name>1308亞聚</name>
        <styleUrl>#icon-1899-0288D1-nodesc</styleUrl>
        <Point>
          <coordinates>
            120.4068083,22.501852,0
          </coordinates>
        </Point>
      </Placemark>
      <Placemark>
        <name>2330台積電</name>
        <styleUrl>#icon-1899-0288D1-nodesc</styleUrl>
        <Point>
          <coordinates>
            121.0126461,24.7745563,0
          </coordinates>
        </Point>
      </Placemark>
      <Placemark>
        <name>4164承業醫</name>
        <styleUrl>#icon-1899-0288D1-nodesc</styleUrl>
        <Point>
          <coordinates>
            121.5809459,25.0626264,0
          </coordinates>
        </Point>
      </Placemark>
      <Placemark>
        <name>3504揚明光</name>
        <styleUrl>#icon-1899-0288D1-nodesc</styleUrl>
        <Point>
          <coordinates>
            120.9986267,24.7814903,0
          </coordinates>
        </Point>
      </Placemark>
      <Placemark>
        <name>2358廷鑫</name>
        <styleUrl>#icon-1899-0288D1-nodesc</styleUrl>
        <Point>
          <coordinates>
            120.2261641,22.9253702,0
          </coordinates>
        </Point>
      </Placemark>
      <Placemark>
        <name>2317鴻海</name>
        <styleUrl>#icon-1899-0288D1-nodesc</styleUrl>
        <Point>
          <coordinates>
            121.4214296,24.9660827,0
          </coordinates>
        </Point>
      </Placemark>
      <Placemark>
        <name>1229聯華</name>
        <styleUrl>#icon-1899-0288D1-nodesc</styleUrl>
        <Point>
          <coordinates>
            121.6114081,25.0550144,0
          </coordinates>
        </Point>
      </Placemark>
      <Placemark>
        <name>2849安泰銀</name>
        <styleUrl>#icon-1899-0288D1-nodesc</styleUrl>
        <Point>
          <coordinates>
            121.5642265,25.0328546,0
          </coordinates>
        </Point>
      </Placemark>
      <Placemark>
        <name>2809京城銀</name>
        <styleUrl>#icon-1899-0288D1-nodesc</styleUrl>
        <Point>
          <coordinates>
            120.1977067,22.9845219,0
          </coordinates>
        </Point>
      </Placemark>
      <Placemark>
        <name>6225天瀚</name>
        <styleUrl>#icon-1899-0288D1-nodesc</styleUrl>
        <Point>
          <coordinates>
            121.5444999,25.0483809,0
          </coordinates>
        </Point>
      </Placemark>
      <Placemark>
        <name>5299杰力</name>
        <styleUrl>#icon-1899-0288D1-nodesc</styleUrl>
        <Point>
          <coordinates>
            121.012354,24.840561,0
          </coordinates>
        </Point>
      </Placemark>
      <Placemark>
        <name>6263普萊德</name>
        <styleUrl>#icon-1899-0288D1-nodesc</styleUrl>
        <Point>
          <coordinates>
            121.5367153,24.9830138,0
          </coordinates>
        </Point>
      </Placemark>
      <Placemark>
        <name>2323中環</name>
        <styleUrl>#icon-1899-0288D1-nodesc</styleUrl>
        <Point>
          <coordinates>
            121.5205767,25.0631546,0
          </coordinates>
        </Point>
      </Placemark>
      <Placemark>
        <name>2303聯電</name>
        <styleUrl>#icon-1899-0288D1-nodesc</styleUrl>
        <Point>
          <coordinates>
            121.0196442,24.7713125,0
          </coordinates>
        </Point>
      </Placemark>
      <Placemark>
        <name>9105泰金寶-DR</name>
        <styleUrl>#icon-1899-0288D1-nodesc</styleUrl>
        <Point>
          <coordinates>
            121.6030094,25.0028167,0
          </coordinates>
        </Point>
      </Placemark>
      <Placemark>
        <name>6443元晶</name>
        <styleUrl>#icon-1899-0288D1-nodesc</styleUrl>
        <Point>
          <coordinates>
            121.5400353,24.985866,0
          </coordinates>
        </Point>
      </Placemark>
      <Placemark>
        <name>2367耀華</name>
        <styleUrl>#icon-1899-0288D1-nodesc</styleUrl>
        <Point>
          <coordinates>
            121.4134175,24.9596835,0
          </coordinates>
        </Point>
      </Placemark>
      <Placemark>
        <name>2882國泰金</name>
        <styleUrl>#icon-1899-0288D1-nodesc</styleUrl>
        <Point>
          <coordinates>
            121.5536734,25.0372947,0
          </coordinates>
        </Point>
      </Placemark>
      <Placemark>
        <name>2886兆豐金</name>
        <styleUrl>#icon-1899-0288D1-nodesc</styleUrl>
        <Point>
          <coordinates>
            121.5325012,25.042884,0
          </coordinates>
        </Point>
      </Placemark>
      <Placemark>
        <name>2610華航</name>
        <styleUrl>#icon-1899-0288D1-nodesc</styleUrl>
        <Point>
          <coordinates>
            121.2208305,25.0683163,0
          </coordinates>
        </Point>
      </Placemark>
      <Placemark>
        <name>5443均豪</name>
        <styleUrl>#icon-1899-0288D1-nodesc</styleUrl>
        <Point>
          <coordinates>
            121.0005955,24.7740141,0
          </coordinates>
        </Point>
      </Placemark>
      <Placemark>
        <name>4562穎漢</name>
        <styleUrl>#icon-1899-0288D1-nodesc</styleUrl>
        <Point>
          <coordinates>
            120.1466176,23.0363648,0
          </coordinates>
        </Point>
      </Placemark>
      <Placemark>
        <name>3455由田</name>
        <styleUrl>#icon-1899-0288D1-nodesc</styleUrl>
        <Point>
          <coordinates>
            121.4865735,24.9967207,0
          </coordinates>
        </Point>
      </Placemark>
      <Placemark>
        <name>3663鑫科</name>
        <styleUrl>#icon-1899-0288D1-nodesc</styleUrl>
        <Point>
          <coordinates>
            120.261006,22.8363163,0
          </coordinates>
        </Point>
      </Placemark>
      <Placemark>
        <name>6538倉和</name>
        <styleUrl>#icon-1899-0288D1-nodesc</styleUrl>
        <Point>
          <coordinates>
            121.3448682,25.000142,0
          </coordinates>
        </Point>
      </Placemark>
      <Placemark>
        <name>6698旭暉應材</name>
        <styleUrl>#icon-1899-0288D1-nodesc</styleUrl>
        <Point>
          <coordinates>
            120.1518703,23.0436048,0
          </coordinates>
        </Point>
      </Placemark>
      <Placemark>
        <name>3615安可</name>
        <styleUrl>#icon-1899-0288D1-nodesc</styleUrl>
        <Point>
          <coordinates>
            121.0362281,24.8754819,0
          </coordinates>
        </Point>
      </Placemark>
      <Placemark>
        <name>3050鈺德</name>
        <styleUrl>#icon-1899-0288D1-nodesc</styleUrl>
        <Point>
          <coordinates>
            121.3748475,25.0460253,0
          </coordinates>
        </Point>
      </Placemark>
      <Placemark>
        <name>3450聯鈞</name>
        <styleUrl>#icon-1899-0288D1-nodesc</styleUrl>
        <Point>
          <coordinates>
            121.4921551,25.0050835,0
          </coordinates>
        </Point>
      </Placemark>
      <Placemark>
        <name>2464盟立</name>
        <styleUrl>#icon-1899-0288D1-nodesc</styleUrl>
        <Point>
          <coordinates>
            121.001509,24.777741,0
          </coordinates>
        </Point>
      </Placemark>
      <Placemark>
        <name>6691洋基工程</name>
        <styleUrl>#icon-1899-0288D1-nodesc</styleUrl>
        <Point>
          <coordinates>
            121.3718237,25.0740772,0
          </coordinates>
        </Point>
      </Placemark>
      <Placemark>
        <name>2460建通</name>
        <styleUrl>#icon-1899-0288D1-nodesc</styleUrl>
        <Point>
          <coordinates>
            120.2708102,22.8531235,0
          </coordinates>
        </Point>
      </Placemark>
      <Placemark>
        <name>3652精聯</name>
        <styleUrl>#icon-1899-0288D1-nodesc</styleUrl>
        <Point>
          <coordinates>
            121.550966,24.9831184,0
          </coordinates>
        </Point>
      </Placemark>
      <Placemark>
        <name>6581鋼聯</name>
        <styleUrl>#icon-1899-0288D1-nodesc</styleUrl>
        <Point>
          <coordinates>
            120.4511077,24.1545395,0
          </coordinates>
        </Point>
      </Placemark>
      <Placemark>
        <name>3563牧德</name>
        <styleUrl>#icon-1899-0288D1-nodesc</styleUrl>
        <Point>
          <coordinates>
            121.0045251,24.7791449,0
          </coordinates>
        </Point>
      </Placemark>
      <Placemark>
        <name>6164華興</name>
        <styleUrl>#icon-1899-0288D1-nodesc</styleUrl>
        <Point>
          <coordinates>
            121.5338662,24.9851673,0
          </coordinates>
        </Point>
      </Placemark>
      <Placemark>
        <name>5907大洋-KY</name>
        <styleUrl>#icon-1899-0288D1-nodesc</styleUrl>
        <Point>
          <coordinates>
            121.5436722,25.0258847,0
          </coordinates>
        </Point>
      </Placemark>
      <Placemark>
        <name>1218泰山</name>
        <styleUrl>#icon-1899-0288D1-nodesc</styleUrl>
        <Point>
          <coordinates>
            120.5934526,23.8496545,0
          </coordinates>
        </Point>
      </Placemark>
      <Placemark>
        <name>2353宏碁</name>
        <styleUrl>#icon-1899-0288D1-nodesc</styleUrl>
        <Point>
          <coordinates>
            121.5447404,25.0625969,0
          </coordinates>
        </Point>
      </Placemark>
      <Placemark>
        <name>2438翔耀</name>
        <styleUrl>#icon-1899-0288D1-nodesc</styleUrl>
        <Point>
          <coordinates>
            121.5573825,25.0360064,0
          </coordinates>
        </Point>
      </Placemark>
      <Placemark>
        <name>2357華碩</name>
        <styleUrl>#icon-1899-0288D1-nodesc</styleUrl>
        <Point>
          <coordinates>
            121.471118,25.1248313,0
          </coordinates>
        </Point>
      </Placemark>
      <Placemark>
        <name>3376新日興</name>
        <styleUrl>#icon-1899-0288D1-nodesc</styleUrl>
        <Point>
          <coordinates>
            121.4263043,25.0075733,0
          </coordinates>
        </Point>
      </Placemark>
      <Placemark>
        <name>2412中華電</name>
        <styleUrl>#icon-1899-0288D1-nodesc</styleUrl>
        <Point>
          <coordinates>
            121.5235131,25.0366736,0
          </coordinates>
        </Point>
      </Placemark>
      <Placemark>
        <name>4938和碩</name>
        <styleUrl>#icon-1899-0288D1-nodesc</styleUrl>
        <Point>
          <coordinates>
            121.4702075,25.1250972,0
          </coordinates>
        </Point>
      </Placemark>
      <Placemark>
        <name>4915致伸</name>
        <styleUrl>#icon-1899-0288D1-nodesc</styleUrl>
        <Point>
          <coordinates>
            121.5656094,25.0810025,0
          </coordinates>
        </Point>
      </Placemark>
      <Placemark>
        <name>2354鴻準</name>
        <styleUrl>#icon-1899-0288D1-nodesc</styleUrl>
        <Point>
          <coordinates>
            121.4124873,24.9611318,0
          </coordinates>
        </Point>
      </Placemark>
      <Placemark>
        <name>1326台化</name>
        <styleUrl>#icon-1899-0288D1-nodesc</styleUrl>
        <Point>
          <coordinates>
            121.5884775,25.0594985,0
          </coordinates>
        </Point>
      </Placemark>
      <Placemark>
        <name>2105正新</name>
        <styleUrl>#icon-1899-0288D1-nodesc</styleUrl>
        <Point>
          <coordinates>
            120.5750869,23.9827004,0
          </coordinates>
        </Point>
      </Placemark>
      <Placemark>
        <name>2002中鋼</name>
        <styleUrl>#icon-1899-0288D1-nodesc</styleUrl>
        <Point>
          <coordinates>
            120.355695,22.5598218,0
          </coordinates>
        </Point>
      </Placemark>
      <Placemark>
        <name>2603長榮</name>
        <styleUrl>#icon-1899-0288D1-nodesc</styleUrl>
        <Point>
          <coordinates>
            121.5341734,25.0576341,0
          </coordinates>
        </Point>
      </Placemark>
      <Placemark>
        <name>3189景碩</name>
        <styleUrl>#icon-1899-0288D1-nodesc</styleUrl>
        <Point>
          <coordinates>
            121.1006517,24.9932688,0
          </coordinates>
        </Point>
      </Placemark>
      <Placemark>
        <name>8936國統</name>
        <styleUrl>#icon-1899-0288D1-nodesc</styleUrl>
        <Point>
          <coordinates>
            120.4453435,22.5163448,0
          </coordinates>
        </Point>
      </Placemark>
      <Placemark>
        <name>6147頎邦</name>
        <styleUrl>#icon-1899-0288D1-nodesc</styleUrl>
        <Point>
          <coordinates>
            121.0200487,24.7643879,0
          </coordinates>
        </Point>
      </Placemark>
      <Placemark>
        <name>8930青鋼</name>
        <styleUrl>#icon-1899-0288D1-nodesc</styleUrl>
        <Point>
          <coordinates>
            120.3227903,23.2063829,0
          </coordinates>
        </Point>
      </Placemark>
      <Placemark>
        <name>3312弘憶股</name>
        <styleUrl>#icon-1899-0288D1-nodesc</styleUrl>
        <Point>
          <coordinates>
            121.5772693,25.0655431,0
          </coordinates>
        </Point>
      </Placemark>
      <Placemark>
        <name>6215和樁</name>
        <styleUrl>#icon-1899-0288D1-nodesc</styleUrl>
        <Point>
          <coordinates>
            121.5723392,25.0793383,0
          </coordinates>
        </Point>
      </Placemark>
      <Placemark>
        <name>3580友威科</name>
        <styleUrl>#icon-1899-0288D1-nodesc</styleUrl>
        <Point>
          <coordinates>
            120.6291864,24.2241817,0
          </coordinates>
        </Point>
      </Placemark>
      <Placemark>
        <name>3535晶彩科</name>
        <styleUrl>#icon-1899-0288D1-nodesc</styleUrl>
        <Point>
          <coordinates>
            121.0159875,24.8486305,0
          </coordinates>
        </Point>
      </Placemark>
      <Placemark>
        <name>6606建德工業</name>
        <styleUrl>#icon-1899-0288D1-nodesc</styleUrl>
        <Point>
          <coordinates>
            121.4738259,25.0490382,0
          </coordinates>
        </Point>
      </Placemark>
      <Placemark>
        <name>5876上海商銀</name>
        <styleUrl>#icon-1899-0288D1-nodesc</styleUrl>
        <Point>
          <coordinates>
            121.5230834,25.0624622,0
          </coordinates>
        </Point>
      </Placemark>
      <Placemark>
        <name>1305華夏</name>
        <styleUrl>#icon-1899-0288D1-nodesc</styleUrl>
        <Point>
          <coordinates>
            121.5651097,25.0795272,0
          </coordinates>
        </Point>
      </Placemark>
      <Placemark>
        <name>4155訊映</name>
        <styleUrl>#icon-1899-0288D1-nodesc</styleUrl>
        <Point>
          <coordinates>
            121.0068984,24.7982115,0
          </coordinates>
        </Point>
      </Placemark>
      <Placemark>
        <name>6485點序</name>
        <styleUrl>#icon-1899-0288D1-nodesc</styleUrl>
        <Point>
          <coordinates>
            121.0069987,24.7978494,0
          </coordinates>
        </Point>
      </Placemark>
      <Placemark>
        <name>2449京元電</name>
        <styleUrl>#icon-1899-0288D1-nodesc</styleUrl>
        <Point>
          <coordinates>
            121.007378,24.797744,0
          </coordinates>
        </Point>
      </Placemark>
      <Placemark>
        <name>2838聯邦銀</name>
        <styleUrl>#icon-1899-0288D1-nodesc</styleUrl>
        <Point>
          <coordinates>
            121.5452255,25.058129,0
          </coordinates>
        </Point>
      </Placemark>
      <Placemark>
        <name>3583辛耘</name>
        <styleUrl>#icon-1899-0288D1-nodesc</styleUrl>
        <Point>
          <coordinates>
            121.008232,24.869372,0
          </coordinates>
        </Point>
      </Placemark>
      <Placemark>
        <name>2352佳世達</name>
        <styleUrl>#icon-1899-0288D1-nodesc</styleUrl>
        <Point>
          <coordinates>
            121.325432,24.9884982,0
          </coordinates>
        </Point>
      </Placemark>
      <Placemark>
        <name>2363矽統</name>
        <styleUrl>#icon-1899-0288D1-nodesc</styleUrl>
        <Point>
          <coordinates>
            121.0040659,24.800212,0
          </coordinates>
        </Point>
      </Placemark>
      <Placemark>
        <name>2466冠西電</name>
        <styleUrl>#icon-1899-0288D1-nodesc</styleUrl>
        <Point>
          <coordinates>
            121.4869174,24.9965494,0
          </coordinates>
        </Point>
      </Placemark>
      <Placemark>
        <name>3260威剛</name>
        <styleUrl>#icon-1899-0288D1-nodesc</styleUrl>
        <Point>
          <coordinates>
            121.4869139,24.99663,0
          </coordinates>
        </Point>
      </Placemark>
      <Placemark>
        <name>2489瑞軒</name>
        <styleUrl>#icon-1899-0288D1-nodesc</styleUrl>
        <Point>
          <coordinates>
            121.48643,24.9964853,0
          </coordinates>
        </Point>
      </Placemark>
      <Placemark>
        <name>3479安勤</name>
        <styleUrl>#icon-1899-0288D1-nodesc</styleUrl>
        <Point>
          <coordinates>
            121.4896481,24.9965161,0
          </coordinates>
        </Point>
      </Placemark>
      <Placemark>
        <name>1313聯成</name>
        <styleUrl>#icon-1899-0288D1-nodesc</styleUrl>
        <Point>
          <coordinates>
            121.61133,25.054957,0
          </coordinates>
        </Point>
      </Placemark>
      <Placemark>
        <name>2939凱羿-KY</name>
        <styleUrl>#icon-1899-0288D1-nodesc</styleUrl>
        <Point>
          <coordinates>
            121.5375352,25.0545913,0
          </coordinates>
        </Point>
      </Placemark>
      <Placemark>
        <name>2538基泰</name>
        <styleUrl>#icon-1899-0288D1-nodesc</styleUrl>
        <Point>
          <coordinates>
            121.5121593,25.0424209,0
          </coordinates>
        </Point>
      </Placemark>
      <Placemark>
        <name>4958臻鼎-KY</name>
        <styleUrl>#icon-1899-0288D1-nodesc</styleUrl>
        <Point>
          <coordinates>
            121.2579046,25.0710968,0
          </coordinates>
        </Point>
      </Placemark>
      <Placemark>
        <name>Yanxin 3rd Road</name>
        <styleUrl>#icon-1899-0288D1-nodesc</styleUrl>
        <Point>
          <coordinates>
            120.9890033,24.7785758,0
          </coordinates>
        </Point>
      </Placemark>
      <Placemark>
        <name>2345智邦</name>
        <styleUrl>#icon-1899-0288D1-nodesc</styleUrl>
        <Point>
          <coordinates>
            120.9880994,24.778066,0
          </coordinates>
        </Point>
      </Placemark>
      <Placemark>
        <name>2414精技</name>
        <styleUrl>#icon-1899-0288D1-nodesc</styleUrl>
        <Point>
          <coordinates>
            121.5822173,25.064474,0
          </coordinates>
        </Point>
      </Placemark>
      <Placemark>
        <name>3028增你強</name>
        <styleUrl>#icon-1899-0288D1-nodesc</styleUrl>
        <Point>
          <coordinates>
            121.5825062,25.0648482,0
          </coordinates>
        </Point>
      </Placemark>
      <Placemark>
        <name>2427三商電</name>
        <styleUrl>#icon-1899-0288D1-nodesc</styleUrl>
        <Point>
          <coordinates>
            121.5709719,25.0282988,0
          </coordinates>
        </Point>
      </Placemark>
      <Placemark>
        <name>2301光寶科</name>
        <styleUrl>#icon-1899-0288D1-nodesc</styleUrl>
        <Point>
          <coordinates>
            121.5711666,25.077819,0
          </coordinates>
        </Point>
      </Placemark>
      <Placemark>
        <name>8926台汽電</name>
        <styleUrl>#icon-1899-0288D1-nodesc</styleUrl>
        <Point>
          <coordinates>
            121.571098,25.0777451,0
          </coordinates>
        </Point>
      </Placemark>
      <Placemark>
        <name>3209全科</name>
        <styleUrl>#icon-1899-0288D1-nodesc</styleUrl>
        <Point>
          <coordinates>
            121.5721696,25.0772887,0
          </coordinates>
        </Point>
      </Placemark>
      <Placemark>
        <name>2885元大金</name>
        <styleUrl>#icon-1899-0288D1-nodesc</styleUrl>
        <Point>
          <coordinates>
            121.5484029,25.0472479,0
          </coordinates>
        </Point>
      </Placemark>
      <Placemark>
        <name>1762中化生</name>
        <styleUrl>#icon-1899-0288D1-nodesc</styleUrl>
        <Point>
          <coordinates>
            121.409932,24.9799419,0
          </coordinates>
        </Point>
      </Placemark>
      <Placemark>
        <name>3018隆銘綠能</name>
        <styleUrl>#icon-1899-0288D1-nodesc</styleUrl>
        <Point>
          <coordinates>
            121.5517819,25.0815243,0
          </coordinates>
        </Point>
      </Placemark>
      <Placemark>
        <name>6914阜爾運通</name>
        <styleUrl>#icon-1899-0288D1-nodesc</styleUrl>
        <Point>
          <coordinates>
            121.4930384,25.0010097,0
          </coordinates>
        </Point>
      </Placemark>
      <Placemark>
        <name>3164景岳</name>
        <styleUrl>#icon-1899-0288D1-nodesc</styleUrl>
        <Point>
          <coordinates>
            120.280072,23.1126338,0
          </coordinates>
        </Point>
      </Placemark>
      <Placemark>
        <name>2712遠雄來</name>
        <styleUrl>#icon-1899-0288D1-nodesc</styleUrl>
        <Point>
          <coordinates>
            121.5966894,23.9082896,0
          </coordinates>
        </Point>
      </Placemark>
      <Placemark>
        <name>9925新保</name>
        <styleUrl>#icon-1899-0288D1-nodesc</styleUrl>
        <Point>
          <coordinates>
            121.5800087,25.0638839,0
          </coordinates>
        </Point>
      </Placemark>
      <Placemark>
        <name>6206飛捷</name>
        <styleUrl>#icon-1899-0288D1-nodesc</styleUrl>
        <Point>
          <coordinates>
            121.5795008,25.0646342,0
          </coordinates>
        </Point>
      </Placemark>
      <Placemark>
        <name>3501維熹</name>
        <styleUrl>#icon-1899-0288D1-nodesc</styleUrl>
        <Point>
          <coordinates>
            121.578846,25.0647012,0
          </coordinates>
        </Point>
      </Placemark>
      <Placemark>
        <name>5608四維航</name>
        <styleUrl>#icon-1899-0288D1-nodesc</styleUrl>
        <Point>
          <coordinates>
            121.5443208,25.053975,0
          </coordinates>
        </Point>
      </Placemark>
      <Placemark>
        <name>6655科定</name>
        <styleUrl>#icon-1899-0288D1-nodesc</styleUrl>
        <Point>
          <coordinates>
            121.4542515,25.0620686,0
          </coordinates>
        </Point>
      </Placemark>
      <Placemark>
        <name>3231緯創</name>
        <styleUrl>#icon-1899-0288D1-nodesc</styleUrl>
        <Point>
          <coordinates>
            121.5782307,25.0581896,0
          </coordinates>
        </Point>
      </Placemark>
      <Placemark>
        <name>6757台灣虎航</name>
        <styleUrl>#icon-1899-0288D1-nodesc</styleUrl>
        <Point>
          <coordinates>
            121.220824,25.0684019,0
          </coordinates>
        </Point>
      </Placemark>
      <Placemark>
        <name>3576聯合再生</name>
        <styleUrl>#icon-1899-0288D1-nodesc</styleUrl>
        <Point>
          <coordinates>
            121.0209311,24.7722064,0
          </coordinates>
        </Point>
      </Placemark>
      <Placemark>
        <name>2486一詮</name>
        <styleUrl>#icon-1899-0288D1-nodesc</styleUrl>
        <Point>
          <coordinates>
            121.454517,25.0631969,0
          </coordinates>
        </Point>
      </Placemark>
      <Placemark>
        <name>3548兆利</name>
        <styleUrl>#icon-1899-0288D1-nodesc</styleUrl>
        <Point>
          <coordinates>
            121.4550644,25.0633893,0
          </coordinates>
        </Point>
      </Placemark>
      <Placemark>
        <name>6552易華電</name>
        <styleUrl>#icon-1899-0288D1-nodesc</styleUrl>
        <Point>
          <coordinates>
            120.309737,22.723818,0
          </coordinates>
        </Point>
      </Placemark>
      <Placemark>
        <name>2812台中銀</name>
        <styleUrl>#icon-1899-0288D1-nodesc</styleUrl>
        <Point>
          <coordinates>
            120.6801162,24.1375319,0
          </coordinates>
        </Point>
      </Placemark>
      <Placemark>
        <name>2025千興</name>
        <styleUrl>#icon-1899-0288D1-nodesc</styleUrl>
        <Point>
          <coordinates>
            120.230891,23.1872236,0
          </coordinates>
        </Point>
      </Placemark>
      <Placemark>
        <name>8039台虹</name>
        <styleUrl>#icon-1899-0288D1-nodesc</styleUrl>
        <Point>
          <coordinates>
            120.286152,22.607802,0
          </coordinates>
        </Point>
      </Placemark>
      <Placemark>
        <name>2731雄獅</name>
        <styleUrl>#icon-1899-0288D1-nodesc</styleUrl>
        <Point>
          <coordinates>
            121.5890232,25.0643704,0
          </coordinates>
        </Point>
      </Placemark>
      <Placemark>
        <name>1701中化</name>
        <styleUrl>#icon-1899-0288D1-nodesc</styleUrl>
        <Point>
          <coordinates>
            121.515334,25.043535,0
          </coordinates>
        </Point>
      </Placemark>
      <Placemark>
        <name>2405輔信</name>
        <styleUrl>#icon-1899-0288D1-nodesc</styleUrl>
        <Point>
          <coordinates>
            121.5804256,25.0705993,0
          </coordinates>
        </Point>
      </Placemark>
      <Placemark>
        <name>2912統一超</name>
        <styleUrl>#icon-1899-0288D1-nodesc</styleUrl>
        <Point>
          <coordinates>
            121.566706,25.0469756,0
          </coordinates>
        </Point>
      </Placemark>
      <Placemark>
        <name>8478東哥遊艇</name>
        <styleUrl>#icon-1899-0288D1-nodesc</styleUrl>
        <Point>
          <coordinates>
            120.328343,22.571047,0
          </coordinates>
        </Point>
      </Placemark>
      <Placemark>
        <name>3346麗清</name>
        <styleUrl>#icon-1899-0288D1-nodesc</styleUrl>
        <Point>
          <coordinates>
            121.4738877,25.0054158,0
          </coordinates>
        </Point>
      </Placemark>
      <Placemark>
        <name>2880華南金</name>
        <styleUrl>#icon-1899-0288D1-nodesc</styleUrl>
        <Point>
          <coordinates>
            121.5691105,25.0343595,0
          </coordinates>
        </Point>
      </Placemark>
      <Placemark>
        <name>3266昇陽</name>
        <styleUrl>#icon-1899-0288D1-nodesc</styleUrl>
        <Point>
          <coordinates>
            121.554714,25.041701,0
          </coordinates>
        </Point>
      </Placemark>
      <Placemark>
        <name>6706惠特</name>
        <styleUrl>#icon-1899-0288D1-nodesc</styleUrl>
        <Point>
          <coordinates>
            120.5914397,24.1695003,0
          </coordinates>
        </Point>
      </Placemark>
      <Placemark>
        <name>2495普安</name>
        <styleUrl>#icon-1899-0288D1-nodesc</styleUrl>
        <Point>
          <coordinates>
            121.4769141,25.0059788,0
          </coordinates>
        </Point>
      </Placemark>
      <Placemark>
        <name>6409旭隼</name>
        <styleUrl>#icon-1899-0288D1-nodesc</styleUrl>
        <Point>
          <coordinates>
            121.584438,25.064581,0
          </coordinates>
        </Point>
      </Placemark>
      <Placemark>
        <name>2324仁寶</name>
        <styleUrl>#icon-1899-0288D1-nodesc</styleUrl>
        <Point>
          <coordinates>
            121.5681582,25.079918,0
          </coordinates>
        </Point>
      </Placemark>
      <Placemark>
        <name>2514龍邦</name>
        <styleUrl>#icon-1899-0288D1-nodesc</styleUrl>
        <Point>
          <coordinates>
            121.5158595,25.046241,0
          </coordinates>
        </Point>
      </Placemark>
      <Placemark>
        <name>5516雙喜</name>
        <styleUrl>#icon-1899-0288D1-nodesc</styleUrl>
        <Point>
          <coordinates>
            120.9797644,24.8093863,0
          </coordinates>
        </Point>
      </Placemark>
      <Placemark>
        <name>2371大同</name>
        <styleUrl>#icon-1899-0288D1-nodesc</styleUrl>
        <Point>
          <coordinates>
            121.5216237,25.0644762,0
          </coordinates>
        </Point>
      </Placemark>
      <Placemark>
        <name>2402毅嘉</name>
        <styleUrl>#icon-1899-0288D1-nodesc</styleUrl>
        <Point>
          <coordinates>
            121.373988,25.0440013,0
          </coordinates>
        </Point>
      </Placemark>
      <Placemark>
        <name>8069元太</name>
        <styleUrl>#icon-1899-0288D1-nodesc</styleUrl>
        <Point>
          <coordinates>
            121.0175319,24.7683106,0
          </coordinates>
        </Point>
      </Placemark>
      <Placemark>
        <name>3338泰碩</name>
        <styleUrl>#icon-1899-0288D1-nodesc</styleUrl>
        <Point>
          <coordinates>
            121.573998,25.076312,0
          </coordinates>
        </Point>
      </Placemark>
      <Placemark>
        <name>3379彬台</name>
        <styleUrl>#icon-1899-0288D1-nodesc</styleUrl>
        <Point>
          <coordinates>
            121.5762698,25.0750387,0
          </coordinates>
        </Point>
      </Placemark>
      <Placemark>
        <name>3580友威</name>
        <styleUrl>#icon-1899-0288D1-nodesc</styleUrl>
        <Point>
          <coordinates>
            120.6291864,24.2241817,0
          </coordinates>
        </Point>
      </Placemark>
      <Placemark>
        <name>8071能率網通</name>
        <styleUrl>#icon-1899-0288D1-nodesc</styleUrl>
        <Point>
          <coordinates>
            121.6226251,25.0693462,0
          </coordinates>
        </Point>
      </Placemark>
      <Placemark>
        <name>8028昇陽半導體</name>
        <styleUrl>#icon-1899-0288D1-nodesc</styleUrl>
        <Point>
          <coordinates>
            121.0248789,24.7745936,0
          </coordinates>
        </Point>
      </Placemark>
      <Placemark>
        <name>4540全球傳動</name>
        <styleUrl>#icon-1899-0288D1-nodesc</styleUrl>
        <Point>
          <coordinates>
            121.4136526,25.0081764,0
          </coordinates>
        </Point>
      </Placemark>
      <Placemark>
        <name>1532勤美</name>
        <styleUrl>#icon-1899-0288D1-nodesc</styleUrl>
        <Point>
          <coordinates>
            121.5477843,25.0383537,0
          </coordinates>
        </Point>
      </Placemark>
      <Placemark>
        <name>6217中探針</name>
        <styleUrl>#icon-1899-0288D1-nodesc</styleUrl>
        <Point>
          <coordinates>
            121.4604198,24.9939973,0
          </coordinates>
        </Point>
      </Placemark>
      <Placemark>
        <name>5356協益</name>
        <styleUrl>#icon-1899-0288D1-nodesc</styleUrl>
        <Point>
          <coordinates>
            121.5153119,25.0449196,0
          </coordinates>
        </Point>
      </Placemark>
      <Placemark>
        <name>3673TPK</name>
        <styleUrl>#icon-1899-0288D1-nodesc</styleUrl>
        <Point>
          <coordinates>
            121.5794617,25.06727,0
          </coordinates>
        </Point>
      </Placemark>
      <Placemark>
        <name>2455全新</name>
        <styleUrl>#icon-1899-0288D1-nodesc</styleUrl>
        <Point>
          <coordinates>
            121.203415,24.9056519,0
          </coordinates>
        </Point>
      </Placemark>
      <Placemark>
        <name>3455由田</name>
        <styleUrl>#icon-1899-0288D1-nodesc</styleUrl>
        <Point>
          <coordinates>
            121.4865735,24.9967207,0
          </coordinates>
        </Point>
      </Placemark>
      <Placemark>
        <name>1909榮成</name>
        <styleUrl>#icon-1899-0288D1-nodesc</styleUrl>
        <Point>
          <coordinates>
            120.3618957,23.8651848,0
          </coordinates>
        </Point>
      </Placemark>
      <Placemark>
        <name>2408南亞科</name>
        <styleUrl>#icon-1899-0288D1-nodesc</styleUrl>
        <Point>
          <coordinates>
            121.4149629,25.0482461,0
          </coordinates>
        </Point>
      </Placemark>
      <Placemark>
        <name>8933愛地雅</name>
        <styleUrl>#icon-1899-0288D1-nodesc</styleUrl>
        <Point>
          <coordinates>
            120.5286481,24.2329344,0
          </coordinates>
        </Point>
      </Placemark>
      <Placemark>
        <name>6517保勝光學</name>
        <styleUrl>#icon-1899-0288D1-nodesc</styleUrl>
        <Point>
          <coordinates>
            120.7031335,24.2185296,0
          </coordinates>
        </Point>
      </Placemark>
      <Placemark>
        <name>6174安碁</name>
        <styleUrl>#icon-1899-0288D1-nodesc</styleUrl>
        <Point>
          <coordinates>
            120.7031108,24.2182402,0
          </coordinates>
        </Point>
      </Placemark>
      <Placemark>
        <name>4960誠美材</name>
        <styleUrl>#icon-1899-0288D1-nodesc</styleUrl>
        <Point>
          <coordinates>
            120.2581766,23.106012,0
          </coordinates>
        </Point>
      </Placemark>
      <Placemark>
        <name>1609大亞</name>
        <styleUrl>#icon-1899-0288D1-nodesc</styleUrl>
        <Point>
          <coordinates>
            120.3163874,22.9618303,0
          </coordinates>
        </Point>
      </Placemark>
      <Placemark>
        <name>4968立積</name>
        <styleUrl>#icon-1899-0288D1-nodesc</styleUrl>
        <Point>
          <coordinates>
            121.5635114,25.0810153,0
          </coordinates>
        </Point>
      </Placemark>
      <Placemark>
        <name>1504東元</name>
        <styleUrl>#icon-1899-0288D1-nodesc</styleUrl>
        <Point>
          <coordinates>
            121.613755,25.0576399,0
          </coordinates>
        </Point>
      </Placemark>
      <Placemark>
        <name>3163波若威</name>
        <styleUrl>#icon-1899-0288D1-nodesc</styleUrl>
        <Point>
          <coordinates>
            121.0055562,24.7742863,0
          </coordinates>
        </Point>
      </Placemark>
      <Placemark>
        <name>2344華邦電</name>
        <styleUrl>#icon-1899-0288D1-nodesc</styleUrl>
        <Point>
          <coordinates>
            120.6190887,24.2119618,0
          </coordinates>
        </Point>
      </Placemark>
      <Placemark>
        <name>3537堡達</name>
        <styleUrl>#icon-1899-0288D1-nodesc</styleUrl>
        <Point>
          <coordinates>
            121.523189,25.0614505,0
          </coordinates>
        </Point>
      </Placemark>
      <Placemark>
        <name>3498陽程</name>
        <styleUrl>#icon-1899-0288D1-nodesc</styleUrl>
        <Point>
          <coordinates>
            121.1903687,25.0478546,0
          </coordinates>
        </Point>
      </Placemark>
      <Placemark>
        <name>8064東捷</name>
        <styleUrl>#icon-1899-0288D1-nodesc</styleUrl>
        <Point>
          <coordinates>
            120.2809056,23.1045044,0
          </coordinates>
        </Point>
      </Placemark>
      <Placemark>
        <name>3048益登</name>
        <styleUrl>#icon-1899-0288D1-nodesc</styleUrl>
        <Point>
          <coordinates>
            121.5634872,25.0820751,0
          </coordinates>
        </Point>
      </Placemark>
      <Placemark>
        <name>1597直得</name>
        <styleUrl>#icon-1899-0288D1-nodesc</styleUrl>
        <Point>
          <coordinates>
            120.2795637,23.1075413,0
          </coordinates>
        </Point>
      </Placemark>
      <Placemark>
        <name>8086宏捷科</name>
        <styleUrl>#icon-1899-0288D1-nodesc</styleUrl>
        <Point>
          <coordinates>
            120.2797648,23.1079748,0
          </coordinates>
        </Point>
      </Placemark>
      <Placemark>
        <name>4561健椿</name>
        <styleUrl>#icon-1899-0288D1-nodesc</styleUrl>
        <Point>
          <coordinates>
            120.4335315,24.1401073,0
          </coordinates>
        </Point>
      </Placemark>
      <Placemark>
        <name>3094聯傑</name>
        <styleUrl>#icon-1899-0288D1-nodesc</styleUrl>
        <Point>
          <coordinates>
            121.0146132,24.7739123,0
          </coordinates>
        </Point>
      </Placemark>
      <Placemark>
        <name>3443創意</name>
        <styleUrl>#icon-1899-0288D1-nodesc</styleUrl>
        <Point>
          <coordinates>
            121.0143151,24.7736753,0
          </coordinates>
        </Point>
      </Placemark>
      <Placemark>
        <name>1809中釉</name>
        <styleUrl>#icon-1899-0288D1-nodesc</styleUrl>
        <Point>
          <coordinates>
            121.0486339,24.773972,0
          </coordinates>
        </Point>
      </Placemark>
      <Placemark>
        <name>5468凱鈺</name>
        <styleUrl>#icon-1899-0288D1-nodesc</styleUrl>
        <Point>
          <coordinates>
            121.0049039,24.783835,0
          </coordinates>
        </Point>
      </Placemark>
      <Placemark>
        <name>5351鈺創</name>
        <styleUrl>#icon-1899-0288D1-nodesc</styleUrl>
        <Point>
          <coordinates>
            121.0047111,24.7839629,0
          </coordinates>
        </Point>
      </Placemark>
      <Placemark>
        <name>6261久元</name>
        <styleUrl>#icon-1899-0288D1-nodesc</styleUrl>
        <Point>
          <coordinates>
            121.004614,24.78287,0
          </coordinates>
        </Point>
      </Placemark>
      <Placemark>
        <name>6129普誠</name>
        <styleUrl>#icon-1899-0288D1-nodesc</styleUrl>
        <Point>
          <coordinates>
            121.5519545,24.9796304,0
          </coordinates>
        </Point>
      </Placemark>
      <Placemark>
        <name>3014聯陽</name>
        <styleUrl>#icon-1899-0288D1-nodesc</styleUrl>
        <Point>
          <coordinates>
            120.9972365,24.7759561,0
          </coordinates>
        </Point>
      </Placemark>
      <Placemark>
        <name>3707漢磊</name>
        <styleUrl>#icon-1899-0288D1-nodesc</styleUrl>
        <Point>
          <coordinates>
            120.996058,24.777619,0
          </coordinates>
        </Point>
      </Placemark>
      <Placemark>
        <name>2458義隆</name>
        <styleUrl>#icon-1899-0288D1-nodesc</styleUrl>
        <Point>
          <coordinates>
            120.9964379,24.77727,0
          </coordinates>
        </Point>
      </Placemark>
      <Placemark>
        <name>6291沛亨</name>
        <styleUrl>#icon-1899-0288D1-nodesc</styleUrl>
        <Point>
          <coordinates>
            121.0203089,24.8464874,0
          </coordinates>
        </Point>
      </Placemark>
      <Placemark>
        <name>6435大中</name>
        <styleUrl>#icon-1899-0288D1-nodesc</styleUrl>
        <Point>
          <coordinates>
            121.0248379,24.7722685,0
          </coordinates>
        </Point>
      </Placemark>
      <Placemark>
        <name>6679鈺太</name>
        <styleUrl>#icon-1899-0288D1-nodesc</styleUrl>
        <Point>
          <coordinates>
            121.0245644,24.7711235,0
          </coordinates>
        </Point>
      </Placemark>
      <Placemark>
        <name>6719力智</name>
        <styleUrl>#icon-1899-0288D1-nodesc</styleUrl>
        <Point>
          <coordinates>
            121.0180789,24.8414753,0
          </coordinates>
        </Point>
      </Placemark>
      <Placemark>
        <name>6720久昌</name>
        <styleUrl>#icon-1899-0288D1-nodesc</styleUrl>
        <Point>
          <coordinates>
            121.0246473,24.7711818,0
          </coordinates>
        </Point>
      </Placemark>
      <Placemark>
        <name>6799來頡</name>
        <styleUrl>#icon-1899-0288D1-nodesc</styleUrl>
        <Point>
          <coordinates>
            121.5729158,25.0759178,0
          </coordinates>
        </Point>
      </Placemark>
      <Placemark>
        <name>8081致新</name>
        <styleUrl>#icon-1899-0288D1-nodesc</styleUrl>
        <Point>
          <coordinates>
            121.0076126,24.7773055,0
          </coordinates>
        </Point>
      </Placemark>
      <Placemark>
        <name>8261富鼎</name>
        <styleUrl>#icon-1899-0288D1-nodesc</styleUrl>
        <Point>
          <coordinates>
            121.018011,24.8415851,0
          </coordinates>
        </Point>
      </Placemark>
      <Placemark>
        <name>富鼎</name>
        <styleUrl>#icon-1899-0288D1-nodesc</styleUrl>
        <Point>
          <coordinates>
            121.018011,24.8415851,0
          </coordinates>
        </Point>
      </Placemark>
      <Placemark>
        <name>8034榮群</name>
        <styleUrl>#icon-1899-0288D1-nodesc</styleUrl>
        <Point>
          <coordinates>
            121.007951,24.7720307,0
          </coordinates>
        </Point>
      </Placemark>
      <Placemark>
        <name>2308台達電</name>
        <styleUrl>#icon-1899-0288D1-nodesc</styleUrl>
        <Point>
          <coordinates>
            121.5778116,25.0741922,0
          </coordinates>
        </Point>
      </Placemark>
      <Placemark>
        <name>8109博大</name>
        <styleUrl>#icon-1899-0288D1-nodesc</styleUrl>
        <Point>
          <coordinates>
            120.6046169,24.1571656,0
          </coordinates>
        </Point>
      </Placemark>
      <Placemark>
        <name>6412群電</name>
        <styleUrl>#icon-1899-0288D1-nodesc</styleUrl>
        <Point>
          <coordinates>
            121.4726687,25.0564641,0
          </coordinates>
        </Point>
      </Placemark>
      <Placemark>
        <name>2301光寶科</name>
        <styleUrl>#icon-1899-0288D1-nodesc</styleUrl>
        <Point>
          <coordinates>
            121.5711666,25.077819,0
          </coordinates>
        </Point>
      </Placemark>
      <Placemark>
        <name>8358金居</name>
        <styleUrl>#icon-1899-0288D1-nodesc</styleUrl>
        <Point>
          <coordinates>
            121.571148,25.077874,0
          </coordinates>
        </Point>
      </Placemark>
      <Placemark>
        <name>3609三一東林</name>
        <styleUrl>#icon-1899-0288D1-nodesc</styleUrl>
        <Point>
          <coordinates>
            120.5946132,24.1538948,0
          </coordinates>
        </Point>
      </Placemark>
      <Placemark>
        <name>6203海韻電</name>
        <styleUrl>#icon-1899-0288D1-nodesc</styleUrl>
        <Point>
          <coordinates>
            121.5705841,25.0805291,0
          </coordinates>
        </Point>
      </Placemark>
      <Placemark>
        <name>3484崧騰</name>
        <styleUrl>#icon-1899-0288D1-nodesc</styleUrl>
        <Point>
          <coordinates>
            121.3007185,25.0327764,0
          </coordinates>
        </Point>
      </Placemark>
      <Placemark>
        <name>2420新巨</name>
        <styleUrl>#icon-1899-0288D1-nodesc</styleUrl>
        <Point>
          <coordinates>
            121.5392127,24.9831123,0
          </coordinates>
        </Point>
      </Placemark>
      <Placemark>
        <name>6104創惟</name>
        <styleUrl>#icon-1899-0288D1-nodesc</styleUrl>
        <Point>
          <coordinates>
            121.5400103,24.9847494,0
          </coordinates>
        </Point>
      </Placemark>
      <Placemark>
        <name>3332幸康</name>
        <styleUrl>#icon-1899-0288D1-nodesc</styleUrl>
        <Point>
          <coordinates>
            121.5549091,25.0329619,0
          </coordinates>
        </Point>
      </Placemark>
      <Placemark>
        <name>3015全漢</name>
        <styleUrl>#icon-1899-0288D1-nodesc</styleUrl>
        <Point>
          <coordinates>
            121.3205973,24.9859779,0
          </coordinates>
        </Point>
      </Placemark>
      <Placemark>
        <name>2457飛宏</name>
        <styleUrl>#icon-1899-0288D1-nodesc</styleUrl>
        <Point>
          <coordinates>
            121.372323,25.0397805,0
          </coordinates>
        </Point>
      </Placemark>
      <Placemark>
        <name>3105穩懋</name>
        <styleUrl>#icon-1899-0288D1-nodesc</styleUrl>
        <Point>
          <coordinates>
            121.3746551,25.0412543,0
          </coordinates>
        </Point>
      </Placemark>