<?xml version="1.0" encoding="UTF-8"?>
<kml xmlns="http://www.opengis.net/kml/2.2">
  <Document>
    <name>TWSE listed companies</name>
    <description/>
    <Style id="icon-1899-0288D1-normal">
      <IconStyle>
        <color>ffd18802</color>
        <scale>1</scale>
        <Icon>
          <href>https://www.gstatic.com/mapspro/images/stock/503-wht-blank_maps.png</href>
        </Icon>
        <hotSpot x="32" xunits="pixels" y="64" yunits="insetPixels"/>
      </IconStyle>
      <LabelStyle>
        <scale>0</scale>
      </LabelStyle>
    </Style>
    <Style id="icon-1899-0288D1-highlight">
      <IconStyle>
        <color>ffd18802</color>
        <scale>1</scale>
        <Icon>
          <href>https://www.gstatic.com/mapspro/images/stock/503-wht-blank_maps.png</href>
        </Icon>
        <hotSpot x="32" xunits="pixels" y="64" yunits="insetPixels"/>
      </IconStyle>
      <LabelStyle>
        <scale>1</scale>
      </LabelStyle>
    </Style>
    <StyleMap id="icon-1899-0288D1">
      <Pair>
        <key>normal</key>
        <styleUrl>#icon-1899-0288D1-normal</styleUrl>
      </Pair>
      <Pair>
        <key>highlight</key>
        <styleUrl>#icon-1899-0288D1-highlight</styleUrl>
      </Pair>
    </StyleMap>
    <Style id="icon-1899-0288D1-nodesc-normal">
      <IconStyle>
        <color>ffd18802</color>
        <scale>1</scale>
        <Icon>
          <href>https://www.gstatic.com/mapspro/images/stock/503-wht-blank_maps.png</href>
        </Icon>
        <hotSpot x="32" xunits="pixels" y="64" yunits="insetPixels"/>
      </IconStyle>
      <LabelStyle>
        <scale>0</scale>
      </LabelStyle>
      <BalloonStyle>
        <text><![CDATA[<h3>$[name]</h3>]]></text>
      </BalloonStyle>
    </Style>
    <Style id="icon-1899-0288D1-nodesc-highlight">
      <IconStyle>
        <color>ffd18802</color>
        <scale>1</scale>
        <Icon>
          <href>https://www.gstatic.com/mapspro/images/stock/503-wht-blank_maps.png</href>
        </Icon>
        <hotSpot x="32" xunits="pixels" y="64" yunits="insetPixels"/>
      </IconStyle>
      <LabelStyle>
        <scale>1</scale>
      </LabelStyle>
      <BalloonStyle>
        <text><![CDATA[<h3>$[name]</h3>]]></text>
      </BalloonStyle>
    </Style>
    <StyleMap id="icon-1899-0288D1-nodesc">
      <Pair>
        <key>normal</key>
        <styleUrl>#icon-1899-0288D1-nodesc-normal</styleUrl>
      </Pair>
      <Pair>
        <key>highlight</key>
        <styleUrl>#icon-1899-0288D1-nodesc-highlight</styleUrl>
      </Pair>
    </StyleMap>
    <Folder>
      <name>(未命名的圖層)</name>
      <Placemark>
        <name>宏捷科技股份有限公司</name>
        <styleUrl>#icon-1899-0288D1-nodesc</styleUrl>
        <Point>
          <coordinates>
            120.2797648,23.1079748,0
          </coordinates>
        </Point>
      </Placemark>
      <Placemark>
        <name>WT Microelectronics Co., Ltd.</name>
        <styleUrl>#icon-1899-0288D1-nodesc</styleUrl>
        <Point>
          <coordinates>
            121.4854958,24.9981631,0
          </coordinates>
        </Point>
      </Placemark>
      <Placemark>
        <name>1615大山電線電纜股份有限公司</name>
        <styleUrl>#icon-1899-0288D1-nodesc</styleUrl>
        <Point>
          <coordinates>
            120.5278363,23.7179188,0
          </coordinates>
        </Point>
      </Placemark>
      <Placemark>
        <name>南亞電路板股份有限公司</name>
        <styleUrl>#icon-1899-0288D1-nodesc</styleUrl>
        <Point>
          <coordinates>
            121.2826428,25.0553741,0
          </coordinates>
        </Point>
      </Placemark>
      <Placemark>
        <name>長興公司南區營業所</name>
        <styleUrl>#icon-1899-0288D1-nodesc</styleUrl>
        <Point>
          <coordinates>
            120.324123,22.6500928,0
          </coordinates>
        </Point>
      </Placemark>
      <Placemark>
        <name>新日興股份有限公司俊英總廠 台灣總部</name>
        <styleUrl>#icon-1899-0288D1-nodesc</styleUrl>
        <Point>
          <coordinates>
            121.4263043,25.0075733,0
          </coordinates>
        </Point>
      </Placemark>
      <Placemark>
        <name>軒郁國際股份有限公司</name>
        <styleUrl>#icon-1899-0288D1-nodesc</styleUrl>
        <Point>
          <coordinates>
            121.5444173,25.058795,0
          </coordinates>
        </Point>
      </Placemark>
      <Placemark>
        <name>富華創新Ｘ總太地產 北屯接待中心</name>
        <styleUrl>#icon-1899-0288D1-nodesc</styleUrl>
        <Point>
          <coordinates>
            120.7298814,24.1612956,0
          </coordinates>
        </Point>
      </Placemark>
      <Placemark>
        <name>年興紡織股份有限公司</name>
        <styleUrl>#icon-1899-0288D1-nodesc</styleUrl>
        <Point>
          <coordinates>
            121.5692058,25.0815067,0
          </coordinates>
        </Point>
      </Placemark>
      <Placemark>
        <name>Nien Hsing Textile Co., Ltd.</name>
        <styleUrl>#icon-1899-0288D1-nodesc</styleUrl>
        <Point>
          <coordinates>
            120.7990371,24.6262171,0
          </coordinates>
        </Point>
      </Placemark>
      <Placemark>
        <name>CSUN Industrial Co., Ltd.</name>
        <styleUrl>#icon-1899-0288D1-nodesc</styleUrl>
        <Point>
          <coordinates>
            121.402855,25.0783,0
          </coordinates>
        </Point>
      </Placemark>
      <Placemark>
        <name>廣寰科技股份有限公司</name>
        <styleUrl>#icon-1899-0288D1-nodesc</styleUrl>
        <Point>
          <coordinates>
            121.4867869,25.0039348,0
          </coordinates>
        </Point>
      </Placemark>
      <Placemark>
        <name>聯合光纖通信</name>
        <styleUrl>#icon-1899-0288D1-nodesc</styleUrl>
        <Point>
          <coordinates>
            120.9862974,24.7778211,0
          </coordinates>
        </Point>
      </Placemark>
      <Placemark>
        <name>榮群電訊股份有限公司</name>
        <styleUrl>#icon-1899-0288D1-nodesc</styleUrl>
        <Point>
          <coordinates>
            121.007951,24.7720307,0
          </coordinates>
        </Point>
      </Placemark>
      <Placemark>
        <name>Tai Tung Communication Co., Ltd.</name>
        <styleUrl>#icon-1899-0288D1-nodesc</styleUrl>
        <Point>
          <coordinates>
            121.4534863,25.0615129,0
          </coordinates>
        </Point>
      </Placemark>
      <Placemark>
        <name>[TW.1608]寶一科技股份有限公司</name>
        <styleUrl>#icon-1899-0288D1-nodesc</styleUrl>
        <Point>
          <coordinates>
            120.28318,23.30631,0
          </coordinates>
        </Point>
      </Placemark>
      <Placemark>
        <name>潤隆建設股份有限公司</name>
        <styleUrl>#icon-1899-0288D1-nodesc</styleUrl>
        <Point>
          <coordinates>
            121.5337885,24.9583574,0
          </coordinates>
        </Point>
      </Placemark>
      <Placemark>
        <name>Aurotek Corporation</name>
        <description>6215</description>
        <styleUrl>#icon-1899-0288D1</styleUrl>
        <Point>
          <coordinates>
            121.5723392,25.0793383,0
          </coordinates>
        </Point>
      </Placemark>
      <Placemark>
        <name>慶康科技股份有限公司</name>
        <description>8098</description>
        <styleUrl>#icon-1899-0288D1</styleUrl>
        <Point>
          <coordinates>
            120.2849672,23.1022115,0
          </coordinates>
        </Point>
      </Placemark>
      <Placemark>
        <name>LabTurbo Biotech Corporation</name>
        <description>7725</description>
        <styleUrl>#icon-1899-0288D1</styleUrl>
        <Point>
          <coordinates>
            121.5230625,25.0849956,0
          </coordinates>
        </Point>
      </Placemark>
      <Placemark>
        <name>築間餐飲事業股份有限公司</name>
        <description>7723</description>
        <styleUrl>#icon-1899-0288D1</styleUrl>
        <Point>
          <coordinates>
            120.6473537,24.1598152,0
          </coordinates>
        </Point>
      </Placemark>
      <Placemark>
        <name>微程式資訊 Microprogram - 物聯網科技服務</name>
        <description>7721</description>
        <styleUrl>#icon-1899-0288D1</styleUrl>
        <Point>
          <coordinates>
            120.6396484,24.1591423,0
          </coordinates>
        </Point>
      </Placemark>
      <Placemark>
        <name>碳基科技股份有限公司</name>
        <description>7719</description>
        <styleUrl>#icon-1899-0288D1</styleUrl>
        <Point>
          <coordinates>
            120.5920609,24.1758159,0
          </coordinates>
        </Point>
      </Placemark>
      <Placemark>
        <name>Largan Co., Ltd.</name>
        <description>3008</description>
        <styleUrl>#icon-1899-0288D1</styleUrl>
        <Point>
          <coordinates>
            120.6042492,24.1473235,0
          </coordinates>
        </Point>
      </Placemark>
      <Placemark>
        <name>INTAI Technology Co., Ltd.</name>
        <description>4163</description>
        <styleUrl>#icon-1899-0288D1</styleUrl>
        <Point>
          <coordinates>
            120.6034866,24.1465853,0
          </coordinates>
        </Point>
      </Placemark>
      <Placemark>
        <name>威力德生醫股份有限公司</name>
        <description>7713</description>
        <styleUrl>#icon-1899-0288D1</styleUrl>
        <Point>
          <coordinates>
            120.3147162,22.6431066,0
          </coordinates>
        </Point>
      </Placemark>
      <Placemark>
        <name>博盛半導體股份有限公司</name>
        <description>7712</description>
        <styleUrl>#icon-1899-0288D1</styleUrl>
        <Point>
          <coordinates>
            121.0371307,24.8072312,0
          </coordinates>
        </Point>
      </Placemark>
      <Placemark>
        <name>聚賢研發股份有限公司</name>
        <description>7631</description>
        <styleUrl>#icon-1899-0288D1</styleUrl>
        <Point>
          <coordinates>
            120.9632748,24.7980849,0
          </coordinates>
        </Point>
      </Placemark>
      <Placemark>
        <name>鐳洋科技</name>
        <description>6980</description>
        <styleUrl>#icon-1899-0288D1</styleUrl>
        <Point>
          <coordinates>
            121.645707,25.061104,0
          </coordinates>
        </Point>
      </Placemark>
      <Placemark>
        <name>永立榮生醫股份有限公司</name>
        <description>6973</description>
        <styleUrl>#icon-1899-0288D1</styleUrl>
        <Point>
          <coordinates>
            121.6486619,25.0620313,0
          </coordinates>
        </Point>
      </Placemark>
      <Placemark>
        <name>台灣精材股份有限公司 Forcera</name>
        <description>3467</description>
        <styleUrl>#icon-1899-0288D1</styleUrl>
        <Point>
          <coordinates>
            121.0958147,24.8880716,0
          </coordinates>
        </Point>
      </Placemark>
      <Placemark>
        <name>SYNBIO TECH INC.</name>
        <description>1295</description>
        <styleUrl>#icon-1899-0288D1</styleUrl>
        <Point>
          <coordinates>
            120.2749234,22.8272444,0
          </coordinates>
        </Point>
      </Placemark>
      <Placemark>
        <name>伯鑫工具股份有限公司總廠Proxene Tools</name>
        <description>6904</description>
        <styleUrl>#icon-1899-0288D1</styleUrl>
        <Point>
          <coordinates>
            120.6722394,24.2527792,0
          </coordinates>
        </Point>
      </Placemark>
      <Placemark>
        <name>寶陞國際股份有限公司</name>
        <description>2948</description>
        <styleUrl>#icon-1899-0288D1</styleUrl>
        <Point>
          <coordinates>
            121.578681,25.0410718,0
          </coordinates>
        </Point>
      </Placemark>
      <Placemark>
        <name>Dongxing Rd, 45號6樓</name>
        <description>2949</description>
        <styleUrl>#icon-1899-0288D1</styleUrl>
        <Point>
          <coordinates>
            121.5662748,25.047846,0
          </coordinates>
        </Point>
      </Placemark>
      <Placemark>
        <name>6937天虹科技股份有限公司</name>
        <description>6937</description>
        <styleUrl>#icon-1899-0288D1</styleUrl>
        <Point>
          <coordinates>
            121.0272551,24.8091652,0
          </coordinates>
        </Point>
      </Placemark>
      <Placemark>
        <name>Winstar Display Co., Ltd. 華凌光電股份有限公司</name>
        <description>6916</description>
        <styleUrl>#icon-1899-0288D1</styleUrl>
        <Point>
          <coordinates>
            120.6285624,24.225735,0
          </coordinates>
        </Point>
      </Placemark>
      <Placemark>
        <name>Vactronics technologies inc</name>
        <description>6742</description>
        <styleUrl>#icon-1899-0288D1</styleUrl>
        <Point>
          <coordinates>
            120.8817259,24.7097307,0
          </coordinates>
        </Point>
      </Placemark>
      <Placemark>
        <name>廷鑫興業股份有限公司</name>
        <styleUrl>#icon-1899-0288D1-nodesc</styleUrl>
        <Point>
          <coordinates>
            120.2261641,22.9253702,0
          </coordinates>
        </Point>
      </Placemark>
      <Placemark>
        <name>廷鑫興業全球總部</name>
        <styleUrl>#icon-1899-0288D1-nodesc</styleUrl>
        <Point>
          <coordinates>
            120.6411657,24.158394,0
          </coordinates>
        </Point>
      </Placemark>
      <Placemark>
        <name>全坤建設開發股份有限公司</name>
        <styleUrl>#icon-1899-0288D1-nodesc</styleUrl>
        <Point>
          <coordinates>
            121.5835167,25.0645815,0
          </coordinates>
        </Point>
      </Placemark>
      <Placemark>
        <name>和鑫光電股份有限公司台北辦公室</name>
        <styleUrl>#icon-1899-0288D1-nodesc</styleUrl>
        <Point>
          <coordinates>
            121.5785641,25.0592562,0
          </coordinates>
        </Point>
      </Placemark>
      <Placemark>
        <name>HannStar</name>
        <styleUrl>#icon-1899-0288D1-nodesc</styleUrl>
        <Point>
          <coordinates>
            121.5788472,25.0589237,0
          </coordinates>
        </Point>
      </Placemark>
      <Placemark>
        <name>精金科技</name>
        <description>3049</description>
        <styleUrl>#icon-1899-0288D1</styleUrl>
        <Point>
          <coordinates>
            121.578746,25.0591154,0
          </coordinates>
        </Point>
      </Placemark>
      <Placemark>
        <name>Single Well Industrial Co., Ltd.</name>
        <styleUrl>#icon-1899-0288D1-nodesc</styleUrl>
        <Point>
          <coordinates>
            121.4299274,24.9679225,0
          </coordinates>
        </Point>
      </Placemark>
      <Placemark>
        <name>恩德科技股份有限公司</name>
        <description>1528</description>
        <styleUrl>#icon-1899-0288D1</styleUrl>
        <Point>
          <coordinates>
            120.8171859,24.625838,0
          </coordinates>
        </Point>
      </Placemark>
      <Placemark>
        <name>PARPRO Taiwan(事欣科技股份有限公司)</name>
        <description>4916</description>
        <styleUrl>#icon-1899-0288D1</styleUrl>
        <Point>
          <coordinates>
            121.2393937,24.9816716,0
          </coordinates>
        </Point>
      </Placemark>
      <Placemark>
        <name>總格精密股份有限公司</name>
        <styleUrl>#icon-1899-0288D1-nodesc</styleUrl>
        <Point>
          <coordinates>
            120.5096662,24.2389388,0
          </coordinates>
        </Point>
      </Placemark>
      <Placemark>
        <name>China Electirc</name>
        <styleUrl>#icon-1899-0288D1-nodesc</styleUrl>
        <Point>
          <coordinates>
            121.577272,25.058114,0
          </coordinates>
        </Point>
      </Placemark>
      <Placemark>
        <name><![CDATA[Ta Ya Electric Wire & Cable Co., Ltd.]]></name>
        <styleUrl>#icon-1899-0288D1-nodesc</styleUrl>
        <Point>
          <coordinates>
            121.4489678,25.0703027,0
          </coordinates>
        </Point>
      </Placemark>
      <Placemark>
        <name>榮群電訊股份有限公司</name>
        <styleUrl>#icon-1899-0288D1-nodesc</styleUrl>
        <Point>
          <coordinates>
            121.007951,24.7720307,0
          </coordinates>
        </Point>
      </Placemark>
      <Placemark>
        <name>普惠醫工股份有限公司 PERFECT MEDICAL INDUSTRY CO., LTD.</name>
        <styleUrl>#icon-1899-0288D1-nodesc</styleUrl>
        <Point>
          <coordinates>
            120.5499622,23.868483,0
          </coordinates>
        </Point>
      </Placemark>
      <Placemark>
        <name>Gemtek Ltd.</name>
        <styleUrl>#icon-1899-0288D1-nodesc</styleUrl>
        <Point>
          <coordinates>
            121.008987,24.8719188,0
          </coordinates>
        </Point>
      </Placemark>
      <Placemark>
        <name>建通精密工業股份有限公司</name>
        <description>2460</description>
        <styleUrl>#icon-1899-0288D1</styleUrl>
        <Point>
          <coordinates>
            120.2708102,22.8531235,0
          </coordinates>
        </Point>
      </Placemark>
      <Placemark>
        <name>XAVI Technologies Corporation</name>
        <description>3447展達</description>
        <styleUrl>#icon-1899-0288D1</styleUrl>
        <Point>
          <coordinates>
            121.4725936,25.0566705,0
          </coordinates>
        </Point>
      </Placemark>
      <Placemark>
        <name>群光電子總部大樓</name>
        <styleUrl>#icon-1899-0288D1-nodesc</styleUrl>
        <Point>
          <coordinates>
            121.4726698,25.0564911,0
          </coordinates>
        </Point>
      </Placemark>
      <Placemark>
        <name>均豪精密工業股份有限公司</name>
        <styleUrl>#icon-1899-0288D1-nodesc</styleUrl>
        <Point>
          <coordinates>
            121.0005955,24.7740141,0
          </coordinates>
        </Point>
      </Placemark>
      <Placemark>
        <name>萬潤科技股份有限公司</name>
        <styleUrl>#icon-1899-0288D1-nodesc</styleUrl>
        <Point>
          <coordinates>
            120.2626777,22.8412372,0
          </coordinates>
        </Point>
      </Placemark>
      <Placemark>
        <name>博磊科技股份有限公司</name>
        <styleUrl>#icon-1899-0288D1-nodesc</styleUrl>
        <Point>
          <coordinates>
            120.9995368,24.8761487,0
          </coordinates>
        </Point>
      </Placemark>
      <Placemark>
        <name>熒茂光學股份有限公司</name>
        <styleUrl>#icon-1899-0288D1-nodesc</styleUrl>
        <Point>
          <coordinates>
            120.2592957,22.8361305,0
          </coordinates>
        </Point>
      </Placemark>
      <Placemark>
        <name>华星光通 Luxnet</name>
        <styleUrl>#icon-1899-0288D1-nodesc</styleUrl>
        <Point>
          <coordinates>
            121.2462743,24.9839919,0
          </coordinates>
        </Point>
      </Placemark>
      <Placemark>
        <name>立益物流開發股份有限公司</name>
        <description>1443</description>
        <styleUrl>#icon-1899-0288D1</styleUrl>
        <Point>
          <coordinates>
            121.508634,25.0538014,0
          </coordinates>
        </Point>
      </Placemark>
      <Placemark>
        <name>立益物流園區</name>
        <styleUrl>#icon-1899-0288D1-nodesc</styleUrl>
        <Point>
          <coordinates>
            121.1877879,24.9615297,0
          </coordinates>
        </Point>
      </Placemark>
      <Placemark>
        <name>茂綸股份有限公司</name>
        <styleUrl>#icon-1899-0288D1-nodesc</styleUrl>
        <Point>
          <coordinates>
            121.5401128,24.9848747,0
          </coordinates>
        </Point>
      </Placemark>
      <Placemark>
        <name>晟銘電子科技股份有限公司</name>
        <styleUrl>#icon-1899-0288D1-nodesc</styleUrl>
        <Point>
          <coordinates>
            121.5837788,25.0689787,0
          </coordinates>
        </Point>
      </Placemark>
      <Placemark>
        <name>AblePrint Technology Co., Ltd. (APT)</name>
        <description>7734</description>
        <styleUrl>#icon-1899-0288D1</styleUrl>
        <Point>
          <coordinates>
            120.9235151,24.7527978,0
          </coordinates>
        </Point>
      </Placemark>
      <Placemark>
        <name>合機電線電纜股份有限公司</name>
        <styleUrl>#icon-1899-0288D1-nodesc</styleUrl>
        <Point>
          <coordinates>
            121.1219625,25.0627619,0
          </coordinates>
        </Point>
      </Placemark>
      <Placemark>
        <name>臺灣中華化學工業桃園一廠</name>
        <styleUrl>#icon-1899-0288D1-nodesc</styleUrl>
        <Point>
          <coordinates>
            121.121161,25.062475,0
          </coordinates>
        </Point>
      </Placemark>
      <Placemark>
        <name>亞洲航空股份有限公司</name>
        <styleUrl>#icon-1899-0288D1-nodesc</styleUrl>
        <Point>
          <coordinates>
            120.2169801,22.9493092,0
          </coordinates>
        </Point>
      </Placemark>
      <Placemark>
        <name>日電貿集團</name>
        <styleUrl>#icon-1899-0288D1-nodesc</styleUrl>
        <Point>
          <coordinates>
            121.5343093,24.9856357,0
          </coordinates>
        </Point>
      </Placemark>
      <Placemark>
        <name>Yageo 國巨股份有限公司</name>
        <styleUrl>#icon-1899-0288D1-nodesc</styleUrl>
        <Point>
          <coordinates>
            121.5519677,24.9793279,0
          </coordinates>
        </Point>
      </Placemark>
      <Placemark>
        <name>Walsin Technology Corporation</name>
        <styleUrl>#icon-1899-0288D1-nodesc</styleUrl>
        <Point>
          <coordinates>
            121.1587564,24.9257403,0
          </coordinates>
        </Point>
      </Placemark>
      <Placemark>
        <name>Holy Stone Enterprise Corp.</name>
        <styleUrl>#icon-1899-0288D1-nodesc</styleUrl>
        <Point>
          <coordinates>
            121.5742959,25.0854627,0
          </coordinates>
        </Point>
      </Placemark>
      <Placemark>
        <name>Prosperity Dielectrics Co., Ltd.</name>
        <styleUrl>#icon-1899-0288D1-nodesc</styleUrl>
        <Point>
          <coordinates>
            121.1586073,24.9256976,0
          </coordinates>
        </Point>
      </Placemark>
      <Placemark>
        <name>蜜望實企業股份有限公司</name>
        <styleUrl>#icon-1899-0288D1-nodesc</styleUrl>
        <Point>
          <coordinates>
            121.5692672,25.0815982,0
          </coordinates>
        </Point>
      </Placemark>
      <Placemark>
        <name>I-Chiun Precision Industry Co., Ltd.</name>
        <styleUrl>#icon-1899-0288D1-nodesc</styleUrl>
        <Point>
          <coordinates>
            121.454517,25.0631969,0
          </coordinates>
        </Point>
      </Placemark>
      <Placemark>
        <name>鐳洋科技股份有限公司</name>
        <styleUrl>#icon-1899-0288D1-nodesc</styleUrl>
        <Point>
          <coordinates>
            121.645707,25.061104,0
          </coordinates>
        </Point>
      </Placemark>
      <Placemark>
        <name>合機電線電纜股份有限公司</name>
        <styleUrl>#icon-1899-0288D1-nodesc</styleUrl>
        <Point>
          <coordinates>
            121.543644,25.04589,0
          </coordinates>
        </Point>
      </Placemark>
      <Placemark>
        <name>雷笛克光學股份有限公司</name>
        <styleUrl>#icon-1899-0288D1-nodesc</styleUrl>
        <Point>
          <coordinates>
            121.4840226,25.0080749,0
          </coordinates>
        </Point>
      </Placemark>
      <Placemark>
        <name>瑞譜科技有限公司</name>
        <styleUrl>#icon-1899-0288D1-nodesc</styleUrl>
        <Point>
          <coordinates>
            120.9949387,24.8351542,0
          </coordinates>
        </Point>
      </Placemark>
      <Placemark>
        <name>三芳化學工業股份有限公司</name>
        <styleUrl>#icon-1899-0288D1-nodesc</styleUrl>
        <Point>
          <coordinates>
            120.3352089,22.721594,0
          </coordinates>
        </Point>
      </Placemark>
      <Placemark>
        <name>宏洲纖維工業股份有限公司桃園工廠</name>
        <styleUrl>#icon-1899-0288D1-nodesc</styleUrl>
        <Point>
          <coordinates>
            121.344375,25.010259,0
          </coordinates>
        </Point>
      </Placemark>
      <Placemark>
        <name>Taiwan 100 and Industrial Co., Ltd.</name>
        <styleUrl>#icon-1899-0288D1-nodesc</styleUrl>
        <Point>
          <coordinates>
            120.4893386,24.1325204,0
          </coordinates>
        </Point>
      </Placemark>
      <Placemark>
        <name>全訊科技股份有限公司(總部及一廠)</name>
        <styleUrl>#icon-1899-0288D1-nodesc</styleUrl>
        <Point>
          <coordinates>
            120.2869044,23.1060087,0
          </coordinates>
        </Point>
      </Placemark>
      <Placemark>
        <name>華友聯集團總部</name>
        <styleUrl>#icon-1899-0288D1-nodesc</styleUrl>
        <Point>
          <coordinates>
            120.3473025,22.6437054,0
          </coordinates>
        </Point>
      </Placemark>
      <Placemark>
        <name>年興紡織股份有限公司</name>
        <styleUrl>#icon-1899-0288D1-nodesc</styleUrl>
        <Point>
          <coordinates>
            121.5692058,25.0815067,0
          </coordinates>
        </Point>
      </Placemark>
      <Placemark>
        <name>Sun Race Sturmey-Archer Inc. 日馳企業股份有限公司</name>
        <styleUrl>#icon-1899-0288D1-nodesc</styleUrl>
        <Point>
          <coordinates>
            121.2601136,25.106888,0
          </coordinates>
        </Point>
      </Placemark>
      <Placemark>
        <name>廣隆光電科技股份有限公司</name>
        <styleUrl>#icon-1899-0288D1-nodesc</styleUrl>
        <Point>
          <coordinates>
            120.6636402,23.9307418,0
          </coordinates>
        </Point>
      </Placemark>
      <Placemark>
        <name>喬福機械 (總公司) Roundtop Machinery Industries Co Ltd (Johnford)</name>
        <styleUrl>#icon-1899-0288D1-nodesc</styleUrl>
        <Point>
          <coordinates>
            120.672848,24.254612,0
          </coordinates>
        </Point>
      </Placemark>
      <Placemark>
        <name>巧新科技工業股份有限公司斗六廠</name>
        <styleUrl>#icon-1899-0288D1-nodesc</styleUrl>
        <Point>
          <coordinates>
            120.5180486,23.7260599,0
          </coordinates>
        </Point>
      </Placemark>
      <Placemark>
        <name>吉茂精密股份有限公司</name>
        <styleUrl>#icon-1899-0288D1-nodesc</styleUrl>
        <Point>
          <coordinates>
            120.3483781,23.9168451,0
          </coordinates>
        </Point>
      </Placemark>
      <Placemark>
        <name>No. 28, Gongqu Rd</name>
        <styleUrl>#icon-1899-0288D1-nodesc</styleUrl>
        <Point>
          <coordinates>
            120.347522,23.9148624,0
          </coordinates>
        </Point>
      </Placemark>
      <Placemark>
        <name>世豐螺絲股份有限公司</name>
        <styleUrl>#icon-1899-0288D1-nodesc</styleUrl>
        <Point>
          <coordinates>
            120.2408954,22.794668,0
          </coordinates>
        </Point>
      </Placemark>
      <Placemark>
        <name>艾姆勒科技股份有限公司 總部</name>
        <styleUrl>#icon-1899-0288D1-nodesc</styleUrl>
        <Point>
          <coordinates>
            121.3811853,25.0905085,0
          </coordinates>
        </Point>
      </Placemark>
      <Placemark>
        <name>逸達生物科技</name>
        <styleUrl>#icon-1899-0288D1-nodesc</styleUrl>
        <Point>
          <coordinates>
            121.6128109,25.0565864,0
          </coordinates>
        </Point>
      </Placemark>
      <Placemark>
        <name>皇昌營造總公司</name>
        <styleUrl>#icon-1899-0288D1-nodesc</styleUrl>
        <Point>
          <coordinates>
            121.5996077,25.0606962,0
          </coordinates>
        </Point>
      </Placemark>
      <Placemark>
        <name>IN WIN Development Inc. Changhsing Factory</name>
        <styleUrl>#icon-1899-0288D1-nodesc</styleUrl>
        <Point>
          <coordinates>
            121.2878332,25.0719349,0
          </coordinates>
        </Point>
      </Placemark>
      <Placemark>
        <name>新復興微波通訊股份有限公司</name>
        <styleUrl>#icon-1899-0288D1-nodesc</styleUrl>
        <Point>
          <coordinates>
            121.0639579,24.9406809,0
          </coordinates>
        </Point>
      </Placemark>
      <Placemark>
        <name>廣化科技股份有限公司</name>
        <styleUrl>#icon-1899-0288D1-nodesc</styleUrl>
        <Point>
          <coordinates>
            120.9873203,24.8669476,0
          </coordinates>
        </Point>
      </Placemark>
      <Placemark>
        <name>協益電子股份有限公司</name>
        <styleUrl>#icon-1899-0288D1-nodesc</styleUrl>
        <Point>
          <coordinates>
            121.1252079,25.0574674,0
          </coordinates>
        </Point>
      </Placemark>
      <Placemark>
        <name>金利精密工業股份有限公司</name>
        <styleUrl>#icon-1899-0288D1-nodesc</styleUrl>
        <Point>
          <coordinates>
            121.1981673,24.9006897,0
          </coordinates>
        </Point>
      </Placemark>
      <Placemark>
        <name>穎崴科技股份有限公司</name>
        <styleUrl>#icon-1899-0288D1-nodesc</styleUrl>
        <Point>
          <coordinates>
            121.017649,24.842417,0
          </coordinates>
        </Point>
      </Placemark>
      <Placemark>
        <name>Winway Technology Co., Ltd.</name>
        <styleUrl>#icon-1899-0288D1-nodesc</styleUrl>
        <Point>
          <coordinates>
            120.3008452,22.7129894,0
          </coordinates>
        </Point>
      </Placemark>
      <Placemark>
        <name>REPON / 南俊國際股份有限公司 - 桃園總部辦公室</name>
        <styleUrl>#icon-1899-0288D1-nodesc</styleUrl>
        <Point>
          <coordinates>
            121.2991981,25.0284865,0
          </coordinates>
        </Point>
      </Placemark>
      <Placemark>
        <name>REPON / 南俊國際股份有限公司-雲科廠</name>
        <styleUrl>#icon-1899-0288D1-nodesc</styleUrl>
        <Point>
          <coordinates>
            120.512908,23.7139192,0
          </coordinates>
        </Point>
      </Placemark>
      <Placemark>
        <name>金居開發股份有限公司-斗六三廠</name>
        <styleUrl>#icon-1899-0288D1-nodesc</styleUrl>
        <Point>
          <coordinates>
            120.5108373,23.7120594,0
          </coordinates>
        </Point>
      </Placemark>
      <Placemark>
        <name>明基材料股份有限公司雲科製造三廠</name>
        <styleUrl>#icon-1899-0288D1-nodesc</styleUrl>
        <Point>
          <coordinates>
            120.5125187,23.7165748,0
          </coordinates>
        </Point>
      </Placemark>
      <Placemark>
        <name>聯上開發股份有限公司</name>
        <styleUrl>#icon-1899-0288D1-nodesc</styleUrl>
        <Point>
          <coordinates>
            121.5667909,25.0405444,0
          </coordinates>
        </Point>
      </Placemark>
      <Placemark>
        <name>聯上實業股份有限公司</name>
        <styleUrl>#icon-1899-0288D1-nodesc</styleUrl>
        <Point>
          <coordinates>
            120.3064536,22.6634647,0
          </coordinates>
        </Point>
      </Placemark>
      <Placemark>
        <name>Neousys Technology 宸曜科技</name>
        <styleUrl>#icon-1899-0288D1-nodesc</styleUrl>
        <Point>
          <coordinates>
            121.4843328,25.0059035,0
          </coordinates>
        </Point>
      </Placemark>
      <Placemark>
        <name>Jung Shing Wire Industrial Co., Ltd.</name>
        <styleUrl>#icon-1899-0288D1-nodesc</styleUrl>
        <Point>
          <coordinates>
            120.2547842,22.9783508,0
          </coordinates>
        </Point>
      </Placemark>
      <Placemark>
        <name>晶呈科技股份有限公司</name>
        <styleUrl>#icon-1899-0288D1-nodesc</styleUrl>
        <Point>
          <coordinates>
            120.891521,24.7041757,0
          </coordinates>
        </Point>
      </Placemark>
      <Placemark>
        <name>醫影股份有限公司</name>
        <styleUrl>#icon-1899-0288D1-nodesc</styleUrl>
        <Point>
          <coordinates>
            121.578971,25.041154,0
          </coordinates>
        </Point>
      </Placemark>
      <Placemark>
        <name>新復興微波通訊股份有限公司</name>
        <styleUrl>#icon-1899-0288D1-nodesc</styleUrl>
        <Point>
          <coordinates>
            121.0639579,24.9406809,0
          </coordinates>
        </Point>
      </Placemark>
      <Placemark>
        <name>茂綸股份有限公司</name>
        <styleUrl>#icon-1899-0288D1-nodesc</styleUrl>
        <Point>
          <coordinates>
            121.5401128,24.9848747,0
          </coordinates>
        </Point>
      </Placemark>
      <Placemark>
        <name>銘鈺精密工業股份有限公司</name>
        <styleUrl>#icon-1899-0288D1-nodesc</styleUrl>
        <Point>
          <coordinates>
            121.1114919,25.059343,0
          </coordinates>
        </Point>
      </Placemark>
      <Placemark>
        <name>Wus Printed Electronics Co., Ltd.</name>
        <styleUrl>#icon-1899-0288D1-nodesc</styleUrl>
        <Point>
          <coordinates>
            120.3041153,22.7209306,0
          </coordinates>
        </Point>
      </Placemark>
      <Placemark>
        <name>DrayTek Corporation</name>
        <styleUrl>#icon-1899-0288D1-nodesc</styleUrl>
        <Point>
          <coordinates>
            121.0052072,24.8689538,0
          </coordinates>
        </Point>
      </Placemark>
      <Placemark>
        <name>鈺緯科技</name>
        <styleUrl>#icon-1899-0288D1-nodesc</styleUrl>
        <Point>
          <coordinates>
            121.4906014,25.003228,0
          </coordinates>
        </Point>
      </Placemark>
      <Placemark>
        <name>廣錠科技股份有限公司汐止廠</name>
        <styleUrl>#icon-1899-0288D1-nodesc</styleUrl>
        <Point>
          <coordinates>
            121.6853072,25.0717191,0
          </coordinates>
        </Point>
      </Placemark>
      <Placemark>
        <name>欣普羅光電股份有限公司</name>
        <styleUrl>#icon-1899-0288D1-nodesc</styleUrl>
        <Point>
          <coordinates>
            121.4599921,25.0389269,0
          </coordinates>
        </Point>
      </Placemark>
      <Placemark>
        <name>3623富晶通</name>
        <styleUrl>#icon-1899-0288D1-nodesc</styleUrl>
        <Point>
          <coordinates>
            121.3786164,25.047982,0
          </coordinates>
        </Point>
      </Placemark>
      <Placemark>
        <name>4526東台精機股份有限公司 (總部)</name>
        <styleUrl>#icon-1899-0288D1-nodesc</styleUrl>
        <Point>
          <coordinates>
            120.258903,22.8313257,0
          </coordinates>
        </Point>
      </Placemark>
      <Placemark>
        <name>8489三貝德數位文創股份有限公司</name>
        <styleUrl>#icon-1899-0288D1-nodesc</styleUrl>
        <Point>
          <coordinates>
            121.468381,25.0453675,0
          </coordinates>
        </Point>
      </Placemark>
      <Placemark>
        <name>6589ABC-KY</name>
        <styleUrl>#icon-1899-0288D1-nodesc</styleUrl>
        <Point>
          <coordinates>
            121.5778474,25.0649507,0
          </coordinates>
        </Point>
      </Placemark>
      <Placemark>
        <name>6021美好金融 台北總公司</name>
        <styleUrl>#icon-1899-0288D1-nodesc</styleUrl>
        <Point>
          <coordinates>
            121.5358359,25.0576534,0
          </coordinates>
        </Point>
      </Placemark>
      <Placemark>
        <name>5468凱鈺科技股份有限公司</name>
        <styleUrl>#icon-1899-0288D1-nodesc</styleUrl>
        <Point>
          <coordinates>
            120.1372298,23.0413497,0
          </coordinates>
        </Point>
      </Placemark>
      <Placemark>
        <name>3713新晶投控</name>
        <styleUrl>#icon-1899-0288D1-nodesc</styleUrl>
        <Point>
          <coordinates>
            121.5194075,25.0319251,0
          </coordinates>
        </Point>
      </Placemark>
      <Placemark>
        <name>8477創業家兄弟股份有限公司</name>
        <styleUrl>#icon-1899-0288D1-nodesc</styleUrl>
        <Point>
          <coordinates>
            121.6132482,25.0565476,0
          </coordinates>
        </Point>
      </Placemark>
      <Placemark>
        <name>3276宇環科技股份有限公司</name>
        <styleUrl>#icon-1899-0288D1-nodesc</styleUrl>
        <Point>
          <coordinates>
            121.270188,25.0624792,0
          </coordinates>
        </Point>
      </Placemark>
      <Placemark>
        <name>8277商丞科技股份有限公司</name>
        <styleUrl>#icon-1899-0288D1-nodesc</styleUrl>
        <Point>
          <coordinates>
            121.5691325,25.0799875,0
          </coordinates>
        </Point>
      </Placemark>
      <Placemark>
        <name>6431光麗-KY</name>
        <styleUrl>#icon-1899-0288D1-nodesc</styleUrl>
        <Point>
          <coordinates>
            121.5364688,25.0545099,0
          </coordinates>
        </Point>
      </Placemark>
      <Placemark>
        <name>4529淳紳</name>
        <styleUrl>#icon-1899-0288D1-nodesc</styleUrl>
        <Point>
          <coordinates>
            121.5572479,25.0314607,0
          </coordinates>
        </Point>
      </Placemark>
      <Placemark>
        <name>6442光聖</name>
        <styleUrl>#icon-1899-0288D1-nodesc</styleUrl>
        <Point>
          <coordinates>
            121.4595526,25.1565829,0
          </coordinates>
        </Point>
      </Placemark>
      <Placemark>
        <name>4549FineTek Co., Ltd.</name>
        <styleUrl>#icon-1899-0288D1-nodesc</styleUrl>
        <Point>
          <coordinates>
            121.4316452,24.9709913,0
          </coordinates>
        </Point>
      </Placemark>
      <Placemark>
        <name>8374羅昇企業股份有限公司</name>
        <styleUrl>#icon-1899-0288D1-nodesc</styleUrl>
        <Point>
          <coordinates>
            121.4451699,25.054681,0
          </coordinates>
        </Point>
      </Placemark>
      <Placemark>
        <name>6834天二科技股份有限公司</name>
        <styleUrl>#icon-1899-0288D1-nodesc</styleUrl>
        <Point>
          <coordinates>
            120.2945816,22.5939917,0
          </coordinates>
        </Point>
      </Placemark>
      <Placemark>
        <name>4924欣厚科技</name>
        <styleUrl>#icon-1899-0288D1-nodesc</styleUrl>
        <Point>
          <coordinates>
            121.5231087,25.0493766,0
          </coordinates>
        </Point>
      </Placemark>
      <Placemark>
        <name>4915Primax Electronics Ltd.</name>
        <styleUrl>#icon-1899-0288D1-nodesc</styleUrl>
        <Point>
          <coordinates>
            121.5656377,25.0809997,0
          </coordinates>
        </Point>
      </Placemark>
      <Placemark>
        <name>6640均華土城廠GMM</name>
        <styleUrl>#icon-1899-0288D1-nodesc</styleUrl>
        <Point>
          <coordinates>
            121.4153529,24.9602303,0
          </coordinates>
        </Point>
      </Placemark>
      <Placemark>
        <name>6451訊芯科技股份有限公司</name>
        <styleUrl>#icon-1899-0288D1-nodesc</styleUrl>
        <Point>
          <coordinates>
            121.414236,24.961155,0
          </coordinates>
        </Point>
      </Placemark>
      <Placemark>
        <name>6890來億興業股份有限公司(旺隆)</name>
        <styleUrl>#icon-1899-0288D1-nodesc</styleUrl>
        <Point>
          <coordinates>
            120.6602853,24.2208561,0
          </coordinates>
        </Point>
      </Placemark>
      <Placemark>
        <name>3483力致科技股份有限公司</name>
        <styleUrl>#icon-1899-0288D1-nodesc</styleUrl>
        <Point>
          <coordinates>
            121.0084221,24.8405642,0
          </coordinates>
        </Point>
      </Placemark>
      <Placemark>
        <name>3374Xintec Technology Co., Ltd.</name>
        <styleUrl>#icon-1899-0288D1-nodesc</styleUrl>
        <Point>
          <coordinates>
            121.2450967,24.9794781,0
          </coordinates>
        </Point>
      </Placemark>
      <Placemark>
        <name>4555臺灣氣立股份有限公司</name>
        <styleUrl>#icon-1899-0288D1-nodesc</styleUrl>
        <Point>
          <coordinates>
            121.4221437,25.031137,0
          </coordinates>
        </Point>
      </Placemark>
      <Placemark>
        <name>5013強新工業股份有限公司</name>
        <styleUrl>#icon-1899-0288D1-nodesc</styleUrl>
        <Point>
          <coordinates>
            120.1788565,23.1838669,0
          </coordinates>
        </Point>
      </Placemark>
      <Placemark>
        <name>5310天剛</name>
        <styleUrl>#icon-1899-0288D1-nodesc</styleUrl>
        <Point>
          <coordinates>
            121.5184792,25.0560686,0
          </coordinates>
        </Point>
      </Placemark>
      <Placemark>
        <name>6284INPAQ Technology Co., Ltd.</name>
        <styleUrl>#icon-1899-0288D1-nodesc</styleUrl>
        <Point>
          <coordinates>
            120.909717,24.726298,0
          </coordinates>
        </Point>
      </Placemark>
      <Placemark>
        <name>2468Fortune Information</name>
        <styleUrl>#icon-1899-0288D1-nodesc</styleUrl>
        <Point>
          <coordinates>
            121.5803403,25.0617056,0
          </coordinates>
        </Point>
      </Placemark>
      <Placemark>
        <name>6535順天醫藥生技股份有限公司</name>
        <styleUrl>#icon-1899-0288D1-nodesc</styleUrl>
        <Point>
          <coordinates>
            121.6119641,25.056818,0
          </coordinates>
        </Point>
      </Placemark>
      <Placemark>
        <name>1219福壽</name>
        <styleUrl>#icon-1899-0288D1-nodesc</styleUrl>
        <Point>
          <coordinates>
            120.5585574,24.2312467,0
          </coordinates>
        </Point>
      </Placemark>
      <Placemark>
        <name>1227Standard Foods</name>
        <styleUrl>#icon-1899-0288D1-nodesc</styleUrl>
        <Point>
          <coordinates>
            121.5656613,25.0803702,0
          </coordinates>
        </Point>
      </Placemark>
      <Placemark>
        <name>2597潤弘精密工程事業股份有限公司</name>
        <styleUrl>#icon-1899-0288D1-nodesc</styleUrl>
        <Point>
          <coordinates>
            121.5425141,25.046942,0
          </coordinates>
        </Point>
      </Placemark>
      <Placemark>
        <name>3122笙泉科技股份有限公司</name>
        <styleUrl>#icon-1899-0288D1-nodesc</styleUrl>
        <Point>
          <coordinates>
            121.0186823,24.8420816,0
          </coordinates>
        </Point>
      </Placemark>
      <Placemark>
        <name>6164華興電子工業股份有限公司</name>
        <styleUrl>#icon-1899-0288D1-nodesc</styleUrl>
        <Point>
          <coordinates>
            121.5338662,24.9851673,0
          </coordinates>
        </Point>
      </Placemark>
      <Placemark>
        <name>1532勤美股份有限公司</name>
        <styleUrl>#icon-1899-0288D1-nodesc</styleUrl>
        <Point>
          <coordinates>
            121.5477843,25.0383537,0
          </coordinates>
        </Point>
      </Placemark>
      <Placemark>
        <name>2906高林實業股份有限公司</name>
        <styleUrl>#icon-1899-0288D1-nodesc</styleUrl>
        <Point>
          <coordinates>
            121.549533,25.057112,0
          </coordinates>
        </Point>
      </Placemark>
      <Placemark>
        <name>4728双美生物科技股份有限公司</name>
        <styleUrl>#icon-1899-0288D1-nodesc</styleUrl>
        <Point>
          <coordinates>
            120.283993,23.0943294,0
          </coordinates>
        </Point>
      </Placemark>
      <Placemark>
        <name>5225東科聲學股份有限公司 (EASTECH)</name>
        <styleUrl>#icon-1899-0288D1-nodesc</styleUrl>
        <Point>
          <coordinates>
            121.5502465,24.9778448,0
          </coordinates>
        </Point>
      </Placemark>
      <Placemark>
        <name>5493Sanlien Technology Corporation</name>
        <styleUrl>#icon-1899-0288D1-nodesc</styleUrl>
        <Point>
          <coordinates>
            120.2662495,22.8098619,0
          </coordinates>
        </Point>
      </Placemark>
      <Placemark>
        <name>8467波力-KY</name>
        <styleUrl>#icon-1899-0288D1-nodesc</styleUrl>
        <Point>
          <coordinates>
            120.7119045,24.2295567,0
          </coordinates>
        </Point>
      </Placemark>
      <Placemark>
        <name>1220台榮產業股份有限公司</name>
        <styleUrl>#icon-1899-0288D1-nodesc</styleUrl>
        <Point>
          <coordinates>
            121.535479,25.05172,0
          </coordinates>
        </Point>
      </Placemark>
      <Placemark>
        <name>1229聯華實業(股)公司</name>
        <styleUrl>#icon-1899-0288D1-nodesc</styleUrl>
        <Point>
          <coordinates>
            121.6114081,25.0550144,0
          </coordinates>
        </Point>
      </Placemark>
      <Placemark>
        <name>3706神達</name>
        <styleUrl>#icon-1899-0288D1-nodesc</styleUrl>
        <Point>
          <coordinates>
            121.6115636,25.0545407,0
          </coordinates>
        </Point>
      </Placemark>
      <Placemark>
        <name>1304台聚</name>
        <styleUrl>#icon-1899-0288D1-nodesc</styleUrl>
        <Point>
          <coordinates>
            120.3376327,22.7139428,0
          </coordinates>
        </Point>
      </Placemark>
      <Placemark>
        <name>6005群益證</name>
        <styleUrl>#icon-1899-0288D1-nodesc</styleUrl>
        <Point>
          <coordinates>
            121.5478204,25.0572371,0
          </coordinates>
        </Point>
      </Placemark>
      <Placemark>
        <name>2007燁興</name>
        <styleUrl>#icon-1899-0288D1-nodesc</styleUrl>
        <Point>
          <coordinates>
            120.2740647,22.7709672,0
          </coordinates>
        </Point>
      </Placemark>
      <Placemark>
        <name>1308亞聚</name>
        <styleUrl>#icon-1899-0288D1-nodesc</styleUrl>
        <Point>
          <coordinates>
            120.4068083,22.501852,0
          </coordinates>
        </Point>
      </Placemark>
      <Placemark>
        <name>1324地球</name>
        <styleUrl>#icon-1899-0288D1-nodesc</styleUrl>
        <Point>
          <coordinates>
            121.538101,25.0522989,0
          </coordinates>
        </Point>
      </Placemark>
      <Placemark>
        <name>2227裕日車</name>
        <styleUrl>#icon-1899-0288D1-nodesc</styleUrl>
        <Point>
          <coordinates>
            120.7532793,24.3861642,0
          </coordinates>
        </Point>
      </Placemark>
      <Placemark>
        <name>2440太空梭</name>
        <styleUrl>#icon-1899-0288D1-nodesc</styleUrl>
        <Point>
          <coordinates>
            121.0098623,24.8454728,0
          </coordinates>
        </Point>
      </Placemark>
      <Placemark>
        <name>5014建錩實業</name>
        <styleUrl>#icon-1899-0288D1-nodesc</styleUrl>
        <Point>
          <coordinates>
            121.191849,25.0656398,0
          </coordinates>
        </Point>
      </Placemark>
      <Placemark>
        <name>6585鼎基</name>
        <styleUrl>#icon-1899-0288D1-nodesc</styleUrl>
        <Point>
          <coordinates>
            120.3711247,22.5566787,0
          </coordinates>
        </Point>
      </Placemark>
      <Placemark>
        <name>3276宇環</name>
        <styleUrl>#icon-1899-0288D1-nodesc</styleUrl>
        <Point>
          <coordinates>
            121.270188,25.0624792,0
          </coordinates>
        </Point>
      </Placemark>
      <Placemark>
        <name>2467志聖</name>
        <styleUrl>#icon-1899-0288D1-nodesc</styleUrl>
        <Point>
          <coordinates>
            121.3725397,25.0734155,0
          </coordinates>
        </Point>
      </Placemark>
      <Placemark>
        <name>8050廣積</name>
        <styleUrl>#icon-1899-0288D1-nodesc</styleUrl>
        <Point>
          <coordinates>
            121.4703447,25.0533649,0
          </coordinates>
        </Point>
      </Placemark>
      <Placemark>
        <name>4414如興</name>
        <styleUrl>#icon-1899-0288D1-nodesc</styleUrl>
        <Point>
          <coordinates>
            121.5442261,25.050593,0
          </coordinates>
        </Point>
      </Placemark>
      <Placemark>
        <name>1102亞洲水泥</name>
        <styleUrl>#icon-1899-0288D1-nodesc</styleUrl>
        <Point>
          <coordinates>
            121.549306,25.025986,0
          </coordinates>
        </Point>
      </Placemark>
      <Placemark>
        <name>5907大洋-KY</name>
        <styleUrl>#icon-1899-0288D1-nodesc</styleUrl>
        <Point>
          <coordinates>
            121.543826,25.026013,0
          </coordinates>
        </Point>
      </Placemark>
      <Placemark>
        <name>2368金像電</name>
        <styleUrl>#icon-1899-0288D1-nodesc</styleUrl>
        <Point>
          <coordinates>
            121.2365018,24.9848553,0
          </coordinates>
        </Point>
      </Placemark>
      <Placemark>
        <name>4584君帆</name>
        <styleUrl>#icon-1899-0288D1-nodesc</styleUrl>
        <Point>
          <coordinates>
            120.2787157,23.035591,0
          </coordinates>
        </Point>
      </Placemark>
      <Placemark>
        <name>2436偉詮電</name>
        <styleUrl>#icon-1899-0288D1-nodesc</styleUrl>
        <Point>
          <coordinates>
            121.0052562,24.7725734,0
          </coordinates>
        </Point>
      </Placemark>
      <Placemark>
        <name>3257虹冠電</name>
        <styleUrl>#icon-1899-0288D1-nodesc</styleUrl>
        <Point>
          <coordinates>
            120.9996823,24.77932,0
          </coordinates>
        </Point>
      </Placemark>
      <Placemark>
        <name>3288點晶</name>
        <styleUrl>#icon-1899-0288D1-nodesc</styleUrl>
        <Point>
          <coordinates>
            121.0014357,24.7836497,0
          </coordinates>
        </Point>
      </Placemark>
      <Placemark>
        <name>3317尼克森</name>
        <styleUrl>#icon-1899-0288D1-nodesc</styleUrl>
        <Point>
          <coordinates>
            121.633221,25.059877,0
          </coordinates>
        </Point>
      </Placemark>
      <Placemark>
        <name>3527聚積</name>
        <styleUrl>#icon-1899-0288D1-nodesc</styleUrl>
        <Point>
          <coordinates>
            121.0078179,24.7928969,0
          </coordinates>
        </Point>
      </Placemark>
      <Placemark>
        <name>4951精拓科</name>
        <styleUrl>#icon-1899-0288D1-nodesc</styleUrl>
        <Point>
          <coordinates>
            121.0170381,24.8428815,0
          </coordinates>
        </Point>
      </Placemark>
      <Placemark>
        <name>4961天鈺</name>
        <styleUrl>#icon-1899-0288D1-nodesc</styleUrl>
        <Point>
          <coordinates>
            121.0230624,24.7703795,0
          </coordinates>
        </Point>
      </Placemark>
      <Placemark>
        <name>3018隆銘綠能</name>
        <styleUrl>#icon-1899-0288D1-nodesc</styleUrl>
        <Point>
          <coordinates>
            121.5517819,25.0815243,0
          </coordinates>
        </Point>
      </Placemark>
      <Placemark>
        <name>2359Solomon Co., Ltd.</name>
        <styleUrl>#icon-1899-0288D1-nodesc</styleUrl>
        <Point>
          <coordinates>
            121.5783319,25.065289,0
          </coordinates>
        </Point>
      </Placemark>
      <Placemark>
        <name>2468華經</name>
        <styleUrl>#icon-1899-0288D1-nodesc</styleUrl>
        <Point>
          <coordinates>
            121.5803403,25.0617056,0
          </coordinates>
        </Point>
      </Placemark>
      <Placemark>
        <name>6790永豐實</name>
        <styleUrl>#icon-1899-0288D1-nodesc</styleUrl>
        <Point>
          <coordinates>
            121.5148865,25.0312909,0
          </coordinates>
        </Point>
      </Placemark>
      <Placemark>
        <name>6781AES-KY</name>
        <styleUrl>#icon-1899-0288D1-nodesc</styleUrl>
        <Point>
          <coordinates>
            121.0793043,24.885071,0
          </coordinates>
        </Point>
      </Placemark>
      <Placemark>
        <name>6121新普</name>
        <styleUrl>#icon-1899-0288D1-nodesc</styleUrl>
        <Point>
          <coordinates>
            121.0790698,24.885658,0
          </coordinates>
        </Point>
      </Placemark>
      <Placemark>
        <name>4109加捷生醫</name>
        <styleUrl>#icon-1899-0288D1-nodesc</styleUrl>
        <Point>
          <coordinates>
            120.3424711,22.6364233,0
          </coordinates>
        </Point>
      </Placemark>
      <Placemark>
        <name>6117迎廣</name>
        <styleUrl>#icon-1899-0288D1-nodesc</styleUrl>
        <Point>
          <coordinates>
            121.3037813,25.0432589,0
          </coordinates>
        </Point>
      </Placemark>
      <Placemark>
        <name>6176瑞儀</name>
        <styleUrl>#icon-1899-0288D1-nodesc</styleUrl>
        <Point>
          <coordinates>
            120.2925843,22.5998656,0
          </coordinates>
        </Point>
      </Placemark>
      <Placemark>
        <name>2881富邦金</name>
        <styleUrl>#icon-1899-0288D1-nodesc</styleUrl>
        <Point>
          <coordinates>
            121.5425872,25.0530796,0
          </coordinates>
        </Point>
      </Placemark>
      <Placemark>
        <name>4545銘鈺</name>
        <styleUrl>#icon-1899-0288D1-nodesc</styleUrl>
        <Point>
          <coordinates>
            121.1114919,25.059343,0
          </coordinates>
        </Point>
      </Placemark>
      <Placemark>
        <name>3492長盛</name>
        <styleUrl>#icon-1899-0288D1-nodesc</styleUrl>
        <Point>
          <coordinates>
            121.4597665,25.1548383,0
          </coordinates>
        </Point>
      </Placemark>
      <Placemark>
        <name>2451創見</name>
        <styleUrl>#icon-1899-0288D1-nodesc</styleUrl>
        <Point>
          <coordinates>
            121.5807797,25.0663865,0
          </coordinates>
        </Point>
      </Placemark>
      <Placemark>
        <name>2884玉山金</name>
        <styleUrl>#icon-1899-0288D1-nodesc</styleUrl>
        <Point>
          <coordinates>
            121.5500994,25.0592741,0
          </coordinates>
        </Point>
      </Placemark>
      <Placemark>
        <name>4207環泰</name>
        <styleUrl>#icon-1899-0288D1-nodesc</styleUrl>
        <Point>
          <coordinates>
            121.2926285,25.0494816,0
          </coordinates>
        </Point>
      </Placemark>
      <Placemark>
        <name>6838台新藥</name>
        <styleUrl>#icon-1899-0288D1-nodesc</styleUrl>
        <Point>
          <coordinates>
            121.5442261,25.050593,0
          </coordinates>
        </Point>
      </Placemark>
      <Placemark>
        <name>6561是方</name>
        <styleUrl>#icon-1899-0288D1-nodesc</styleUrl>
        <Point>
          <coordinates>
            121.5820351,25.0707676,0
          </coordinates>
        </Point>
      </Placemark>
      <Placemark>
        <name>2471資通</name>
        <styleUrl>#icon-1899-0288D1-nodesc</styleUrl>
        <Point>
          <coordinates>
            121.5232795,25.0602754,0
          </coordinates>
        </Point>
      </Placemark>
      <Placemark>
        <name>5425台半</name>
        <styleUrl>#icon-1899-0288D1-nodesc</styleUrl>
        <Point>
          <coordinates>
            121.7331096,24.7809176,0
          </coordinates>
        </Point>
      </Placemark>
      <Placemark>
        <name>6446藥華藥</name>
        <styleUrl>#icon-1899-0288D1-nodesc</styleUrl>
        <Point>
          <coordinates>
            121.6118825,25.0584861,0
          </coordinates>
        </Point>
      </Placemark>
      <Placemark>
        <name>8255朋程</name>
        <styleUrl>#icon-1899-0288D1-nodesc</styleUrl>
        <Point>
          <coordinates>
            121.2802505,25.0577241,0
          </coordinates>
        </Point>
      </Placemark>
      <Placemark>
        <name>8476台境</name>
        <styleUrl>#icon-1899-0288D1-nodesc</styleUrl>
        <Point>
          <coordinates>
            120.3137297,22.630237,0
          </coordinates>
        </Point>
      </Placemark>
      <Placemark>
        <name>3227原相</name>
        <styleUrl>#icon-1899-0288D1-nodesc</styleUrl>
        <Point>
          <coordinates>
            121.0003867,24.7737793,0
          </coordinates>
        </Point>
      </Placemark>
      <Placemark>
        <name>2465麗臺</name>
        <styleUrl>#icon-1899-0288D1-nodesc</styleUrl>
        <Point>
          <coordinates>
            121.4876185,24.9978164,0
          </coordinates>
        </Point>
      </Placemark>
      <Placemark>
        <name>7402邑錡</name>
        <styleUrl>#icon-1899-0288D1-nodesc</styleUrl>
        <Point>
          <coordinates>
            121.5695849,25.0809084,0
          </coordinates>
        </Point>
      </Placemark>
      <Placemark>
        <name>8930青鋼</name>
        <styleUrl>#icon-1899-0288D1-nodesc</styleUrl>
        <Point>
          <coordinates>
            120.3227903,23.2063829,0
          </coordinates>
        </Point>
      </Placemark>
      <Placemark>
        <name>6231系微</name>
        <styleUrl>#icon-1899-0288D1-nodesc</styleUrl>
        <Point>
          <coordinates>
            121.5364839,25.0589274,0
          </coordinates>
        </Point>
      </Placemark>
      <Placemark>
        <name>2618長榮航</name>
        <styleUrl>#icon-1899-0288D1-nodesc</styleUrl>
        <Point>
          <coordinates>
            121.2971015,25.0401698,0
          </coordinates>
        </Point>
      </Placemark>
      <Placemark>
        <name>5706鳳凰</name>
        <styleUrl>#icon-1899-0288D1-nodesc</styleUrl>
        <Point>
          <coordinates>
            121.524044,25.049407,0
          </coordinates>
        </Point>
      </Placemark>
      <Placemark>
        <name>2454聯發科</name>
        <styleUrl>#icon-1899-0288D1-nodesc</styleUrl>
        <Point>
          <coordinates>
            121.0232623,24.7722707,0
          </coordinates>
        </Point>
      </Placemark>
      <Placemark>
        <name>4966譜瑞-KY</name>
        <styleUrl>#icon-1899-0288D1-nodesc</styleUrl>
        <Point>
          <coordinates>
            121.5742472,25.0770618,0
          </coordinates>
        </Point>
      </Placemark>
      <Placemark>
        <name>4533協易機</name>
        <styleUrl>#icon-1899-0288D1-nodesc</styleUrl>
        <Point>
          <coordinates>
            121.305695,25.044659,0
          </coordinates>
        </Point>
      </Placemark>
      <Placemark>
        <name>2615萬海</name>
        <styleUrl>#icon-1899-0288D1-nodesc</styleUrl>
        <Point>
          <coordinates>
            121.5328126,25.0530349,0
          </coordinates>
        </Point>
      </Placemark>
      <Placemark>
        <name>2609陽明</name>
        <styleUrl>#icon-1899-0288D1-nodesc</styleUrl>
        <Point>
          <coordinates>
            121.7109313,25.0944587,0
          </coordinates>
        </Point>
      </Placemark>
      <Placemark>
        <name>6270倍微</name>
        <styleUrl>#icon-1899-0288D1-nodesc</styleUrl>
        <Point>
          <coordinates>
            121.645707,25.061104,0
          </coordinates>
        </Point>
      </Placemark>
      <Placemark>
        <name>2356英業達</name>
        <styleUrl>#icon-1899-0288D1-nodesc</styleUrl>
        <Point>
          <coordinates>
            121.5216026,25.0853879,0
          </coordinates>
        </Point>
      </Placemark>
      <Placemark>
        <name>6269台郡</name>
        <styleUrl>#icon-1899-0288D1-nodesc</styleUrl>
        <Point>
          <coordinates>
            120.4238436,22.5804045,0
          </coordinates>
        </Point>
      </Placemark>
    </Folder>
  </Document>
</kml>
